poiid,title,address,lon,lat,category,checkin_user_num,city,checkin_num,checkin_ave
B2094450D064ABF8439C,巴布洛生态谷,"江苏省 南京市 竹镇",118.621,32.4841,公园户外,190,0025,242,1.27368421
B2094450D064ABFD4598,巴布洛生态谷,"江苏省 南京市 竹镇镇金磁社区",118.613,32.4827,一般地点标志,48,0025,60,1.25
B2094450D064ABFD479E,钟山风景区,"江苏省 南京市 中山陵",118.852,32.0364,公园户外,23,0025,34,1.478260869
B2094450D065A4F9459F,玄武湖,"江苏省 南京市 南京市玄武区",118.932,32.1149,公园户外,44,0025,116,2.636363636
B2094450D068AAF84699,南京国际青年文化中心,南京市建邺区邺城路6号,118.709,31.9916,著名地点,12,0025,22,1.833333333
B2094450D06AA2FB4293,清荷园北园,"江苏省 南京市 南京市建邺区中河路69号",118.716,31.9753,一般地点标志,94,0025,262,2.787234042
B2094450D06AA6FA4399,南京市审计学院敏知楼,"江苏省 南京市 南京市浦口区雨山西路86号",118.609,32.0611,校园生活,42,0025,53,1.261904761
B2094450D06AA6FF4093,赤味串串香,"江苏省 南京市 1912街区玛索旁边",118.801,32.0427,餐饮美食,11,0025,13,1.181818181
B2094450D06AABF5459F,海韵之星,"江苏省 南京市 南京市",118.8,31.9783,生活娱乐,16,0025,16,1
B2094450D06BA5F4489F,南京特殊教育师范学院,"江苏省 南京市 江苏省南京市栖霞区神农路1号",118.837,32.1262,校园生活,245,0025,755,3.081632653
B2094450D06CA3FC409F,南京禄口国际机场,"江苏省 南京市 禄口镇",118.872,31.7272,一般地点标志,3171,0025,3393,1.07000946
B2094450D06CA7FF489E,银乐迪KTV,"江苏省 南京市 南京市浦口区桥北新一城银乐迪KTV",118.728,32.1393,生活娱乐,36,0025,41,1.138888888
B2094450D06DA2FE449D,南京•新街口,"江苏省 南京市 白下区中山东路",118.859,31.9549,生活娱乐,43,0025,47,1.093023255
B2094450D06DA4F84393,首釜年糕新一城店,"江苏省 南京市 大桥北路新一城",118.721,32.1407,餐饮美食,9,0025,9,1
B2094450D06DA5FD419F,冶山国家矿山公园,"江苏省 南京市 六合",118.983,32.4956,一般地点标志,31,0025,39,1.258064516
B2094450D06DA6F94393,南京铁道学院,"江苏省 南京市 珍珠南路65号",118.704,32.1009,校园生活,126,0025,268,2.126984126
B2094450D06DA7F44193,南京六朝博物馆,"江苏省 南京市 长江路",118.799,32.0422,楼宇机构,25,0025,26,1.04
B2094450D06DA7FB469C,永丰诗舍,"江苏省 南京市 中山陵",118.849,32.0545,公园户外,60,0025,164,2.733333333
B2094450D06EA0FD409E,钱仓向日葵花海,"江苏省 南京市 南京六合钱仓304县道",118.859,32.3497,生活娱乐,42,0025,46,1.095238095
B2094450D06FABF8419D,南京江宁爱情隧道,"江苏省 南京市 南京江宁区",118.795,31.8241,一般地点标志,359,0025,382,1.064066852
B2094450D164ABF5469D,南京大学仙林校区恩玲剧场,"江苏省 南京市 南大仙林",118.957,32.1125,校园生活,43,0025,49,1.139534883
B2094450D165A7FD4092,先锋润泽书局,"江苏省 南京市 南京审计学院",118.609,32.0624,校园生活,33,0025,40,1.212121212
B2094450D168A0FF449A,老门东,"江苏省 南京市 中华门内",118.929,32.0992,公园户外,17,0025,17,1
B2094450D168A1F8429E,南京禄口机场VIP贵宾休息室,"江苏省 南京市 南京禄口机场1楼候机厅",118.879,31.7299,出行住宿,18,0025,19,1.055555555
B2094450D168A3FE4692,桔子水晶酒店·逸仙桥店,"江苏省 南京市 南京市秦淮区中山东路472号",118.802,32.0405,出行住宿,44,0025,52,1.181818181
B2094450D169A2F84198,韩国首尔济州岛,"江苏省 南京市 济州国际机场",118.816,32.1125,餐饮美食,24,0025,29,1.208333333
B2094450D16AA4F84899,润SEASON锅物料理（华灯坊店）,"江苏省 南京市 南京市建邺区华灯坊",118.728,31.9978,餐饮美食,12,0025,18,1.5
B2094450D16AA5FF409E,雅居乐滨江国际酒店,"江苏省 南京市 南京市浦口区",118.672,32.0623,餐饮美食,61,0025,86,1.409836065
B2094450D16BA7FE469B,水林间,"江苏省 南京市 南京仙林金鹰",118.932,32.1005,餐饮美食,43,0025,44,1.023255813
B2094450D16CA4FB459F,南京碌口国际机场T2航站楼,"江苏省 南京市 碌口机场",118.877,31.7254,一般地点标志,12,0025,12,1
B2094450D16DA1FC459D,紫金山头驼岭,"江苏省 南京市 南京市玄武区",118.844,32.1188,一般地点标志,15,0025,16,1.066666666
B2094450D16DA2F84293,汪海国际大酒店,"江苏省 南京市 南京市雨花台区梅山雄风路486号",118.634,31.8939,出行住宿,28,0025,31,1.107142857
B2094450D16DA2FC4292,南京新街口,"江苏省 南京市 南京市新街口",118.604,32.0671,餐饮美食,27,0025,27,1
B2094450D16DA4F94998,金陵飯店亞太商務樓,"江苏省 南京市 南京新街口漢中路2號",118.793,31.9393,出行住宿,7,0025,7,1
B2094450D16DA6FA4793,南京市夫子庙,"江苏省 南京市 南京市夫子庙",118.77,32.229,一般地点标志,35,0025,36,1.028571428
B2094450D16FA3FD449C,南京夫子庙,"江苏省 南京市 南京",118.926,32.0997,餐饮美食,52,0025,54,1.038461538
B2094450D16FA7FD4399,大叔的丝袜奶茶铺,天元东路897号海澜宾馆旁,118.878,31.9404,糕饼店,14,0025,19,1.357142857
B2094450D465AAF9439E,海韵之星邮轮会,"江苏省 南京市 丁墙路6号",118.8,31.9787,生活娱乐,191,0025,223,1.167539267
B2094450D468A6F54492,南京砂之船奥特莱斯艺术商业广场,南京市江宁区秣周东路18号,118.816,31.8689,特色商业街,552,0025,718,1.300724637
B2094450D469A3FC4593,南京爱能国际酒吧,"江苏省 南京市 鼓楼区五台山",118.797,32.0483,一般地点标志,36,0025,44,1.222222222
B2094450D46DA2F8469A,拉亚汉堡经典餐厅,"江苏省 南京市 府前东路9号万达金街4幢105室（江宁万达）",118.92,31.8986,餐饮美食,24,0025,32,1.333333333
B2094450D46DA6FA419B,海韵之星游轮水会,"江苏省 南京市 南京明发广场",118.798,31.9824,生活娱乐,40,0025,50,1.25
B2094450D564AAF84492,南京大屠杀纪念馆,"江苏省 南京市 南京市江东门街418号",118.862,31.9364,楼宇机构,18,0025,18,1
B2094450D564AAFF479E,侵华日军南京大屠杀遇难同胞纪念馆,"江苏省 南京市 南京江东门街418号",118.911,31.9173,一般地点标志,23,0025,23,1
B2094450D569ABFE4799,东山,None,118.842,31.9631,商圈,2639,0025,7555,2.862826828
B2094450D56CABFC499D,新石器烤肉,"江苏省 南京市 仙林",118.926,32.103,出行住宿,27,0025,28,1.037037037
B2094450D664A2F8419F,南京,"江苏省 南京市 南京",118.832,32.1293,一般地点标志,116,0025,367,3.163793103
B2094450D665A1FC4899,南京工业大学浦江学院,"江苏省 南京市 江宁区汤山街道汤峰路96号",119.052,32.0206,校园生活,217,0025,800,3.686635944
B2094450D665A1FF4499,栖霞山风景区,"江苏省 南京市 南京市栖霞市栖霞山风景区",118.867,32.1342,公园户外,65,0025,68,1.046153846
B2094450D669A7FD499C,奶酪时光,"江苏省 南京市 南京理工大学1号路",118.859,32.0301,餐饮美食,17,0025,18,1.058823529
B2094450D66AA4FF409D,南京华灯坊,"江苏省 南京市 江东中路236号",118.723,31.9997,餐饮美食,73,0025,84,1.150684931
B2094450D66BA1FC4392,南京紫金科技创业特别社区,"江苏省 南京市 南京江宁区",118.827,31.8687,一般地点标志,84,0025,119,1.416666666
B2094450D66BA2FA489B,恒大华府,"江苏省 南京市 小行",118.753,31.9772,一般地点标志,5,0025,6,1.2
B2094450D66CA1F94398,画家村,"江苏省 南京市 南京市六合区毛许",118.8,32.3013,出行住宿,46,0025,149,3.239130434
B2094450D66DA0FB499D,南京审计学院先锋书店润泽书局,"江苏省 南京市 南京审计学院",118.612,32.0634,生活娱乐,122,0025,155,1.270491803
B2094450D66EA5FD459C,南京眼步行桥,"江苏省 南京市 南京",118.713,31.9857,一般地点标志,87,0025,102,1.172413793
B2094450D66FA1FB419E,德克士（珠江路店）,"江苏省 南京市 南京市珠江路333号（近百脑汇）",118.799,32.0471,餐饮美食,7,0025,7,1
B2094450D66FA1FB489D,莲花湖体育公园,"江苏省 南京市 南京市雨花台区",118.659,31.9057,公园户外,55,0025,64,1.163636363
B2094450D66FA2FF4499,桐月春至,"江苏省 南京市 南京市浦口区大马路7号",118.722,32.0972,一般地点标志,11,0025,28,2.545454545
B2094450D765A2FE429E,民国红公馆,"江苏省 南京市 南京市珠江路1912街区3号楼",118.801,32.0422,餐饮美食,8,0025,9,1.125
B2094450D768A3FA429D,玄武湖公园,"江苏省 南京市 中央路",118.793,31.9185,公园户外,81,0025,104,1.283950617
B2094450D769A2F54999,南京江宁大学城,"江苏省 南京市 南京江宁大学城",118.879,31.9263,一般地点标志,85,0025,122,1.435294117
B2094450D769A2F84093,中山陵,"江苏省 南京市 灵谷寺钟灵街",118.872,32.0382,公园户外,38,0025,45,1.184210526
B2094450D769ABFC489C,彩虹广场,"江苏省 南京市 彩虹广场",118.815,32.1209,购物服务,19,0025,49,2.578947368
B2094450D76AA4F8409F,南京特教学院,"江苏省 南京市 神农路1号",118.839,32.1247,校园生活,15,0025,20,1.333333333
B2094450D76AA6FE4492,"LAYA BURGER",江苏省南京市江宁区府前东路9号万达金街4幢105室,118.848,31.9532,餐饮美食,13,0025,15,1.153846153
B2094450D76BA0F54793,南京拿督顶级榴莲甜点,"江苏省 南京市 南京1912",118.796,32.0461,餐饮美食,14,0025,14,1
B2094450D76CA3FB479D,南京,"江苏省 南京市 江宁区",119.056,32.0169,购物服务,45,0025,122,2.711111111
B2094450D76DA2FB409C,中广国际影城,"江苏省 南京市 浦口区",118.628,32.0578,生活娱乐,15,0025,16,1.066666666
B2094450D76DAAF44693,外婆家私房菜,"江苏省 南京市 马群花园城",118.895,32.0505,餐饮美食,24,0025,29,1.208333333
B2094450D76FABFD439F,南京,"江苏省 南京市 月华西路",118.89,31.927,一般地点标志,44,0025,92,2.09090909
B2094450DA64ABF54192,宽窄巷子（江宁店）,"江苏省 南京市 江宁区胜太路",118.804,31.944,火锅店,80,0025,91,1.1375
B2094450DB64A0FA4998,南京万谷·慧生活广场,栖霞区华电路1号,118.813,32.1038,购物服务,123,0025,146,1.186991869
B2094451D06DABF4419C,南京润之意法拉利玛莎拉蒂3S中心,江宁区润麒路18号,118.875,31.9822,汽车交通类公司,18,0025,22,1.222222222
B2094451D164ABFC449E,南京紫金（下关）科技创业特别社区,江苏省南京市鼓楼区幕府东路199号,118.803,32.1149,一般地点标志,16,0025,32,2
B2094451D16AA0F4439D,山姆德国乡村吧,玄武区中山门大街森林摩尔2栋206,118.866,32.0385,西餐厅,14,0025,14,1
B2094451D16CA4F4489C,漆桥古村落,江苏省南京市高淳县123省道,118.992,31.3754,著名地点,10,0025,12,1.2
B2094451D264A5FA409E,蓝湾咖啡(将军大道店),江苏省南京市江宁区将军大道129号,118.791,31.9179,咖啡厅,8,0025,9,1.125
B2094451D46FA7FD4993,江苏原力电脑动画制作有限公司,建邺区嘉陵江东街18号国家广告产业园,118.721,31.9887,公司,13,0025,16,1.23076923
B2094451D66FA0FE499E,茉莉茉莉韩式年糕料理,江苏省南京市江宁区知行路,118.899,31.9148,咖啡厅,7,0025,9,1.285714285
B2094451DB68A3F5409C,"Dreamy Chicken韩式炸鸡店",江苏省南京市栖霞区学则路,118.924,32.097,咖啡厅,12,0025,13,1.083333333
B2094452D06EA0FF459E,南京市江北新区,江苏省南京市浦口区学府路,118.715,32.1573,著名地点,10,0025,14,1.4
B2094452D265A0F84099,竹镇止马岭,南京市六合区竹镇(毗邻安徽省来安县),118.586,32.5718,山脉,10,0025,10,1
B2094452D265A2F44293,幕燕滨江风貌区,南京市栖霞区永济大道9号,118.816,32.1463,山脉,27,0025,31,1.148148148
B2094452D265A2F4439D,卧龙湖小镇,南京市溧水区经济开发区卧龙湖大道一号(宁杭高速溧水北出口),119.049,31.725,江苏菜,51,0025,64,1.25490196
B2094452D265A2FD4192,大金山国防园,南京市溧水县大金山风景区,119.119,31.6964,户外健身场所,20,0025,25,1.25
B2094452D265A7F9439C,南京保利大剧院,南京市建邺区邺城路6号(南京国际青年文化中心),118.722,31.9953,剧场,8,0025,8,1
B2094452D265A7FC4599,湖熟菊花展,南京市湖熟现代农业示范园,118.938,31.7985,公园户外,44,0025,54,1.227272727
B2094452D36CA4F9429F,固城湖,南京市高淳县,118.924,31.2834,休闲场所,7,0025,7,1
B2094452D36EA5FF4999,南京青目刺青処,江苏省南京市建邺区奥体大街199号金马郦城37栋2单元104,118.714,32.0081,机构及其他类公司,5,0025,197,39.4
B2094453D568A1FE4092,孟非的小面(中央商场店),中山南路79号南京中央商场7楼,118.866,32.0404,特色／地方风味餐厅,24,0025,24,1
B2094453D56EA4FB409B,喜来稀肉(金鹰奥莱店),学海路1号仙林金鹰奥莱城F馆,118.926,32.1035,韩国料理,6,0025,6,1
B2094453D56EA6F44699,西贝莜面村(江宁金鹰店),江宁区双龙大道1680号金鹰购物中心4楼,118.824,31.9284,西北菜,8,0025,8,1
B2094453D56EA6F44993,水货seahood(仙林金鹰店),学海路1号,118.926,32.1035,海鲜酒楼,10,0025,10,1
B2094453D56EA6FD459F,晋秦人家(森林摩尔店),中山门大街301号森林摩尔街区8栋301,118.868,32.039,西北菜,6,0025,6,1
B2094453D56EA7F94192,metoocate蜜桃餐厅(江宁金鹰店),江宁百家湖地铁站金鹰购物中心4楼,118.821,31.9316,江苏菜,22,0025,23,1.045454545
B2094454D064A3FC419F,金穗花园,"江苏省 南京市 南京黄山路",118.639,31.9326,楼宇机构,7,0025,109,15.571428571
B2094454D064ABFB499F,马场山格桑花园,"江苏省 南京市 淳化马场山",119.098,31.9175,公园户外,97,0025,111,1.144329896
B2094454D065A0F54493,27度法式甜品浦口店,"江苏省 南京市 浦口区天凤国际美食街",118.628,32.0546,餐饮美食,11,0025,66,6
B2094454D06BA4FF409B,羊山湖公园,"江苏省 南京市 南京市栖霞区仙境路",118.939,32.1062,公园户外,324,0025,360,1.111111111
B2094454D06BABF5499B,万达广场,"江苏省 南京市 新街口",118.855,31.966,生活娱乐,40,0025,47,1.175
B2094454D06BABFC409B,力峰健身,"江苏省 南京市 天元路",118.843,31.9288,生活娱乐,19,0025,29,1.526315789
B2094454D164A3FD449A,恒山花苑,"江苏省 南京市 建邺区恒山路199号",118.718,31.9809,出行住宿,12,0025,24,2
B2094454D169A5FD4792,联创科技大厦,"江苏省 南京市 集汇路18号",118.723,32.0337,楼宇机构,48,0025,98,2.041666666
B2094454D169A6FA449B,总统府,"江苏省 南京市 中国江苏省南京市玄武区长江路292",118.845,31.9345,一般地点标志,50,0025,50,1
B2094454D169ABFA469F,TACOS塔可,"江苏省 南京市 马群花园城",118.895,32.0508,餐饮美食,15,0025,15,1
B2094454D16BA0F8429B,南京禄口国际机场T2航站楼,"江苏省 南京市 南京江宁区",118.892,31.7934,出行住宿,56,0025,57,1.017857142
B2094454D16BA3FA499E,禄口机场T2航站楼,"江苏省 南京市 禄口",118.877,31.7314,出行住宿,7909,0025,9528,1.204703502
B2094454D16BA4FA489E,高淳体育馆,"江苏省 南京市 南京市高淳区双高路",118.912,31.3421,公园户外,29,0025,34,1.172413793
B2094454D16BA5FB439D,南京禄口国际机场T2航站楼,"江苏省 南京市 禄口",118.88,31.7289,楼宇机构,40,0025,43,1.075
B2094454D16BA6FB469A,南京禄口国际机场T2,"江苏省 南京市 南京市江宁区禄口",118.881,31.729,一般地点标志,10,0025,10,1
B2094454D16BA7F9429A,南京大屠杀纪念馆,"江苏省 南京市 江宁区",118.808,31.9325,公园户外,9,0025,8,0.888888888
B2094454D16CABFB4993,避风塘,"江苏省 南京市 南京鼓楼区新城市广场",118.741,32.0558,餐饮美食,20,0025,22,1.1
B2094454D16DA0F4409B,星巴克珍珠饭店店,"江苏省 南京市 珠江路389号",118.8,32.0467,餐饮美食,20,0025,23,1.15
B2094454D16DA0FF4992,总理陵园·美龄宫,"江苏省 南京市 总理陵园",118.85,32.0395,公园户外,31,0025,30,0.967741935
B2094454D16DA3FC4392,江岸水城,"江苏省 南京市 南京市浦口区复兴社区",118.739,32.1549,一般地点标志,32,0025,75,2.34375
B2094454D16DA6FB479B,南京明基医院,"江苏省 南京市 建邺区",118.728,31.9875,公司,31,0025,53,1.709677419
B2094454D16DAAF8419A,总统府民国书院,"江苏省 南京市 总统府民国书院",118.803,32.0433,公园户外,14,0025,16,1.142857142
B2094454D16DABF4489E,国家电网南瑞集团公司,"江苏省 南京市 江宁区诚信大道12号",118.818,31.9246,公司,18,0025,18,1
B2094454D16EA4FA4599,南京眼,"江苏省 南京市 南京市建邺区森林公园",118.703,32.008,一般地点标志,62,0025,68,1.096774193
B2094454D16FA2F5439C,南京,"江苏省 南京市 南京",118.611,32.0748,一般地点标志,69,0025,159,2.304347826
B2094454D16FA4F9489E,中国南京,"江苏省 南京市 中国南京",118.799,31.9729,一般地点标志,65,0025,66,1.015384615
B2094454D16FAAFC4698,南京地铁S1机场线,"江苏省 南京市 禄口机场",118.805,31.8351,出行住宿,86,0025,91,1.058139534
B2094454D26CABFC4698,华泰证券总部大楼,"奥体大街与富春江西街之间,江东中路与巴山路之间",118.724,32.0021,住宅区,16,0025,26,1.625
B2094454D36BA7FD4798,MG魔术私人发型会所,南京市浦口区江浦街道金浦步行街5-15号猫空一排魔术沙龙,118.634,32.0565,购物服务,9,0025,534,59.333333333
B2094454D768A2F44092,水脉堂,"江苏省 南京市 南京新一城",118.727,32.1396,餐饮美食,8,0025,11,1.375
B2094454D769A2FF4399,奥体,"江苏省 南京市 南京奥体中心体育场",118.731,31.967,一般地点标志,38,0025,52,1.368421052
B2094454D769A5F5429C,南京.中共南京市委党校,"江苏省 南京市 南京",118.943,32.0954,一般地点标志,75,0025,93,1.24
B2094454DA6FAAF4449C,南京青年奥林匹克公园,"江苏省 南京市 南京河西",118.708,31.9963,公园户外,102,0025,111,1.088235294
B2094455DA64A2FC4792,禄口机场T2航站楼23登机口,"江苏省 南京市 南京禄口国际机场",118.816,31.8057,一般地点标志,135,0025,163,1.207407407
B2094455DA64AAFE459D,时光小驻coffee,"江苏省 南京市 溧水",119.033,31.6554,餐饮美食,11,0025,16,1.454545454
B2094455DA64ABFC4898,万景园,"江苏省 南京市 南京市扬子江大道",118.716,32.0337,公园户外,32,0025,38,1.1875
B2094455DA65A3FE4899,杨国福麻辣烫,"江苏省 南京市 栖霞区仙林大学城学则路",118.92,32.0931,餐饮美食,10,0025,10,1
B2094455DA65A5FA4693,南京青奥村,"江苏省 南京市 建邺区青奥南路",118.801,32.0474,一般地点标志,57,0025,64,1.122807017
B2094455DA69A5FB419C,南京青奥体育公园,"江苏省 南京市 南京市浦口区",118.664,32.0444,公园户外,717,0025,890,1.241283124
B2094455DA69AAF8439C,南京商厦幸福蓝海电影院,"江苏省 南京市 中央路",118.807,32.0993,购物服务,14,0025,14,1
B2094455DA6AA0FD429E,高淳宁高国际影城,"江苏省 南京市 高淳",118.892,31.3298,生活娱乐,17,0025,18,1.058823529
B2094455DA6AA0FE4492,高淳县固城镇,"江苏省 南京市 1",118.983,31.2768,出行住宿,25,0025,24,0.96
B2094455DA6BA4F8479E,漫湘小馆,"江苏省 南京市 浦口区新一城",118.704,32.1132,餐饮美食,10,0025,10,1
B2094455DA6BA7F4479A,星巴克南京机场店,"江苏省 南京市 南京禄口国际机场T2航站楼休息厅",118.874,31.7287,餐饮美食,130,0025,142,1.092307692
B2094455DB64ABF8479D,悠仙美地,"江苏省 南京市 建邺区江东中路华灯坊",118.728,31.9976,餐饮美食,5,0025,8,1.6
B2094455DB65AAFC4392,南京青奥村,"江苏省 南京市 南京",118.7,31.9642,一般地点标志,54,0025,60,1.111111111
B2094455DB6CA1F54699,南京禄口国际机场候机楼,"江苏省 南京市 南京市禄口",118.885,31.7352,楼宇机构,13,0025,13,1
B2094455DB6CA2FC449E,南京2014青奥会高淳武术场馆,"江苏省 南京市 南京市高淳区",118.914,31.338,一般地点标志,19,0025,20,1.052631578
B2094455DB6CABF5449D,星巴克,"江苏省 南京市 南京市建邺区江东中路236号",118.729,31.9973,一般地点标志,10,0025,12,1.2
B2094456D064A0F5459F,街角西餐厅,"江苏省 南京市 江东中路236号华灯坊204",118.724,31.9995,餐饮美食,21,0025,60,2.857142857
B2094456D064A0F8469B,南京青奥体育公园,"江苏省 南京市 南京市浦口区城南河路99号",118.666,32.0497,公园户外,69,0025,71,1.028985507
B2094456D069A6FC4499,青奥村,"江苏省 南京市 南京市建邺区金沙江西街16号",118.712,31.991,楼宇机构,66,0025,100,1.515151515
B2094456D069A7FC4092,西堤厚牛排,"江苏省 南京市 新城市广场",118.741,32.0561,餐饮美食,20,0025,19,0.95
B2094456D069AAF5469D,南京禄口国际机场T2航站楼,"江苏省 南京市 南京市禄口区上港路",118.876,31.7311,一般地点标志,2911,0025,3240,1.11301958
B2094456D069AAFA479E,南京碌口国际机场T2,"江苏省 南京市 南京市",118.723,32.0384,楼宇机构,8,0025,8,1
B2094456D06AA3FB409F,南京禄口机场国际出发,"江苏省 南京市 江宁区",118.876,31.7317,一般地点标志,100,0025,104,1.04
B2094456D06AA3FD4799,陶苑,"江苏省 南京市 南京市江宁区弘景大道",118.897,31.8869,出行住宿,26,0025,46,1.769230769
B2094456D06AAAF4429B,南京禄口国际机场国际到达,"江苏省 南京市 江宁区禄口镇",118.876,31.7314,出行住宿,14,0025,13,0.928571428
B2094456D66CABFD4293,1912尚瑞SUNRISE,"江苏省 南京市 1912街区13号楼3楼尚瑞SUNRISE",118.798,32.0462,未知分类,19,0025,24,1.263157894
B2094457D064A5FF469A,海德北岸城,"江苏省 南京市 海德北岸城",118.733,32.1201,一般地点标志,20,0025,34,1.7
B2094457D068A2FA4399,高淳区体育中心,"江苏省 南京市 双湖南路",118.914,31.3378,生活娱乐,57,0025,78,1.368421052
B2094457D069A1FA429F,南京六朝博物馆,"江苏省 南京市 南京市玄武区长江路302号",118.799,32.0424,生活娱乐,318,0025,449,1.411949685
B2094457D069A3F5449B,米兰梦工厂,"江苏省 南京市 南京市栖霞区",118.872,32.0941,公司,8,0025,23,2.875
B2094457D06BAAFA489D,中国·南京·国际青年文化中心,"江苏省 南京市 南京双子塔",118.708,31.9918,楼宇机构,98,0025,276,2.81632653
B2094457D06BAAFB4893,南京鱼嘴湿地公园,"江苏省 南京市 南京",118.676,31.9771,公园户外,51,0025,63,1.235294117
B2094457D06BAAFF4892,南京保利大剧院,"江苏省 南京市 南京市建邺区邺城路6号",118.716,32.0005,生活娱乐,372,0025,467,1.255376344
B2094457D06BABF54298,南京南,"江苏省 南京市 江苏省南京市南京南站",118.492,32.0676,出行住宿,65,0025,66,1.015384615
B2094457D06CA2F4429C,南京青奥体育公园曲棍球赛场,"江苏省 南京市 南京市浦口区",118.662,32.0417,公园户外,25,0025,35,1.4
B2094457D06CA5F8489E,南京大屠杀纪念馆,"江苏省 南京市 南京大屠杀纪念馆",118.925,32.1452,一般地点标志,24,0025,24,1
B2094457D06CA6FC4199,南京奥林匹克中心,"江苏省 南京市 南京奥林匹克",118.648,32.064,公园户外,26,0025,39,1.5
B2094457D06CABF5449F,青奥体育公园橄榄球赛场,"江苏省 南京市 南京市浦口区",118.664,32.0454,公园户外,18,0025,21,1.166666666
B2094457D06DA2FA409D,鱼嘴湿地公园,"江苏省 南京市 扬子江大道",118.667,31.9687,公园户外,106,0025,119,1.122641509
B2094457D06EA0F94499,六朝博物馆,"江苏省 南京市 南京市玄武区汉府街",118.799,32.0453,公园户外,21,0025,21,1
B2094457D06EAAF94699,TASTy西堤牛排,"江苏省 南京市 新城市广场",118.746,32.0525,餐饮美食,11,0025,11,1
B2094457D06FA2FE439D,南京禄口机场2号航站楼,"江苏省 南京市 南京禄口国际机场",118.881,31.7298,出行住宿,11,0025,11,1
B2094457D06FA3FF459B,海韵之星,"江苏省 南京市 海韵之星",118.798,31.9804,生活娱乐,25,0025,39,1.56
B2094457D06FA6FB4898,金轮新都汇,"江苏省 南京市 双龙大道1118号",118.809,31.9252,楼宇机构,10,0025,10,1
B2094457D168A0FB449C,国立中央皇家师范大学,"江苏省 南京市 南京仙林大学城",118.91,32.116,校园生活,122,0025,273,2.237704918
B2094457D168A0FF449A,南京市新街口,"江苏省 南京市 德基",118.807,31.9822,一般地点标志,30,0025,30,1
B2094457D168A6F9469F,夫子庙,"江苏省 南京市 南京",118.818,31.8784,公园户外,26,0025,27,1.038461538
B2094457D168A7F94799,南京师范大学中北学院,"江苏省 南京市 学林路2号",118.908,32.1175,校园生活,24,0025,46,1.916666666
B2094457D169AAF54792,方山国家地质公园,"江苏省 南京市 南京市江宁区方山",118.875,31.9461,公园户外,20,0025,21,1.05
B2094457D16AA2FA4893,韩釜年糕火锅,"江苏省 南京市 弘扬广场",118.725,32.1388,餐饮美食,11,0025,11,1
B2094457D16CA2FB479D,上海铁路局南京高铁南站,"江苏省 南京市 江苏省",118.902,32.1153,楼宇机构,11,0025,18,1.636363636
B2094457D16CA4FB4492,南京新街口,"江苏省 南京市 g i j k",118.872,32.0354,楼宇机构,37,0025,38,1.027027027
B2094457D16CA6FE429A,南京大学仙林校区,"江苏省 南京市 仙林",118.892,32.0748,校园生活,27,0025,27,1
B2094457D16DA1F9459B,爱情隧道,"江苏省 南京市 爱情隧道",118.803,32.046,一般地点标志,14,0025,14,1
B2094457D16EA0FF4893,浙江省嘉兴县西塘,"江苏省 南京市 浙江省嘉兴县西塘",118.804,32.0441,出行住宿,12,0025,12,1
B2094457D16EA1FF439D,四方当代美术馆,"江苏省 南京市 南京市浦口区珍七路9号",118.644,32.1125,公园户外,100,0025,125,1.25
B2094457D16EA6F94293,南京紫金江宁,"江苏省 南京市 秣周路",118.833,31.8626,一般地点标志,13,0025,22,1.692307692
B2094457D16FA6FB419C,南京好婆私房菜,"江苏省 南京市 南京市秦淮区科巷新寓1栋104室",118.791,31.983,餐饮美食,12,0025,12,1
B2094457D268AAFA4092,南京博物院,"江苏省 南京市 南京明故宫附近",118.878,31.952,一般地点标志,57,0025,67,1.175438596
B2094457D268AAFF499C,新华传媒粤海国际大酒店,"江苏省 南京市 南京市江东中路363号",118.723,31.9886,出行住宿,64,0025,88,1.375
B2094457D364A2F8429D,大唐南京发电厂,"江苏省 南京市 栖霞区靖安镇电厂路",119.213,32.2095,公司,17,0025,41,2.411764705
B2094457D364A4F9489E,南京航空航天大学,"江苏省 南京市 白下区",118.876,31.7633,校园生活,21,0025,26,1.238095238
B2094457D365A5F84493,青奥村,"江苏省 南京市 建邺区",118.705,31.9899,一般地点标志,38,0025,51,1.342105263
B2094457D365A5FF4699,南京汤山直立人化石遗址博物馆,"江苏省 南京市 汤泉西路",119.042,32.0558,公园户外,50,0025,61,1.22
B2094457D365A6FB4198,青奥体育公园沙滩排球,"江苏省 南京市 南京市浦口区青奥体育公园",118.663,32.0437,公园户外,25,0025,36,1.44
B2094457D365A6FB429E,青奥体育公园,"江苏省 南京市 青奥体育公园沙滩排球",118.663,32.0437,公园户外,24,0025,23,0.958333333
B2094457D36EABFC4798,交通银行江苏省分行,"江苏省 南京市 南京市建邺区",118.72,31.9926,公司,27,0025,36,1.333333333
B2094457D36FA4FF449F,南京奥体中心,"江苏省 南京市 南京",118.874,31.9299,一般地点标志,31,0025,32,1.032258064
B2094457D36FA5FF439B,弘扬广场,"江苏省 南京市 弘扬广场",118.741,32.2267,购物服务,26,0025,31,1.192307692
B2094457D36FABFA469E,新街口,"江苏省 南京市 洪武路",118.631,32.0715,生活娱乐,23,0025,26,1.130434782
B2094457D465A5FC4598,南京审计学院敏达楼,"江苏省 南京市 南京审计学院敏达楼",118.607,32.0616,校园生活,82,0025,118,1.43902439
B2094457D66CA3F5439B,紫峰大厦,"江苏省 南京市 鼓楼区",118.842,31.9286,一般地点标志,27,0025,30,1.111111111
B2094457D66CA5FF4298,南京医科大学体育馆,"江苏省 南京市 南京医科大学江宁校区",118.891,31.9425,校园生活,13,0025,13,1
B2094457D66CA7FD4992,江苏万驰国际赛车场,"江苏省 南京市 溧水",119.04,31.6721,公园户外,163,0025,219,1.343558282
B2094457D66DA6F54393,永丰诗社,"江苏省 南京市 玄武区西陵路",118.857,32.0398,生活娱乐,19,0025,19,1
B2094457D66EA3FC469D,橘舍城市咖啡[創意主題概念店],"江苏省 南京市 南京市浦口區大橋北路48號(弘陽廣場)",118.723,32.1408,餐饮美食,15,0025,23,1.533333333
B2094457D66FA1FB4898,奥体中心,"江苏省 南京市 南京市建邺区",118.635,32.0592,楼宇机构,35,0025,40,1.142857142
B2094655D46CA3FA4398,21世纪现代城公交站,江宁宁溧路和天元路交界处,118.821,31.9294,公交车站,25,0025,36,1.44
B2094655D46CA3FA4399,73602部队公交站,,118.838,31.9772,公交车站,32,0025,85,2.65625
B2094655D46CA3FA439E,73656部队公交站,,119.04,32.1553,公交车站,21,0025,23,1.095238095
B2094655D46CA3FA439F,73680部队公交站,,118.87,31.913,公交车站,20,0025,22,1.1
B2094655D46CA3FA4592,奥体大街(嵩山路)公交站,,118.738,31.9972,公交车站,26,0025,34,1.307692307
B2094655D46CA3FA4593,奥体大街东公交站,,118.738,31.997,公交车站,7,0025,14,2
B2094655D46CA3FA459C,奥体大街公交站,,118.736,31.9989,公交车站,95,0025,223,2.347368421
B2094655D46CA3FA459F,奥陶公交站,,118.777,31.8127,公交车站,3,0025,3,1
B2094655D46CA3FA4693,八百桥公交站,,118.926,32.4181,公交车站,90,0025,115,1.277777777
B2094655D46CA3FA469D,奥体中心西门公交站,,118.719,32.0103,公交车站,27,0025,29,1.074074074
B2094655D46CA3FA479D,八卦洲公交站,,118.802,32.1786,公交车站,316,0025,500,1.582278481
B2094655D46CA3FA479E,八家村公交站,,118.849,31.8035,公交车站,4,0025,5,1.25
B2094655D46CA3FA4898,白龙广场公交站,,118.821,31.9346,公交车站,13,0025,16,1.23076923
B2094655D46CA3FA489A,白果路公交站,,118.851,32.3406,公交车站,20,0025,77,3.85
B2094655D46CA3FA489F,白水桥公交站,,118.908,32.0519,公交车站,5,0025,8,1.6
B2094655D46CA3FA4993,百家湖花园,江宁开发区利源中路88号,118.808,31.9356,一般地点标志,987,0025,2797,2.833839918
B2094655D46CA3FB4098,百润路公交站,,118.735,32.1574,公交车站,15,0025,53,3.533333333
B2094655D46CA3FB409C,百水芊城,南京栖霞区百水芊城春水坊,118.907,32.0483,一般地点标志,584,0025,1932,3.308219178
B2094655D46CA3FB409D,百水芊城北门公交站,,118.905,32.0504,公交车站,6,0025,12,2
B2094655D46CA3FB409F,百水桥公交站,,118.912,32.0529,公交车站,27,0025,44,1.629629629
B2094655D46CA3FC4093,马汊河大桥,,118.766,32.26,公园户外,28,0025,35,1.25
B2094655D46CA3FC409C,冶山矿桥,,118.841,32.3131,公园户外,3,0025,3,1
B2094655D46CA3FC419E,龙虎桥,,118.867,32.3084,公园户外,11,0025,14,1.272727272
B2094655D46CA3FC4292,泰来桥,,118.502,32.0902,公园户外,5,0025,6,1.2
B2094655D46CA3FC429C,槽坊桥,,118.776,32.2917,公园户外,7,0025,9,1.285714285
B2094655D46CA3FC429F,风雷桥,,118.782,32.3096,公园户外,13,0025,17,1.307692307
B2094655D46CA3FC439C,五棵松涵,,118.882,32.0471,公园户外,2,0025,2,1
B2094655D46CA3FC439E,青马桥,,118.889,32.0628,公园户外,7,0025,8,1.142857142
B2094655D46CA3FC439F,神马桥,,118.899,32.0698,公园户外,41,0025,95,2.31707317
B2094655D46CA3FC4493,泉水桥,,118.662,32.5366,公园户外,51,0025,55,1.078431372
B2094655D46CA3FC4592,山北桥,,118.906,32.335,公园户外,12,0025,21,1.75
B2094655D46CA3FC489D,瓜埠桥,,118.888,32.2408,公园户外,8,0025,9,1.125
B2094655D46CA3FC489F,叶庄桥,,118.91,32.2185,公园户外,5,0025,7,1.4
B2094655D46CA3FC4999,青伏桥,,118.986,32.2428,公园户外,7,0025,8,1.142857142
B2094655D46CA3FC499A,和平桥,,118.977,32.2387,公园户外,10,0025,10,1
B2094655D46CA3FD419B,万象桥,,118.71,32.2009,公园户外,34,0025,75,2.205882352
B2094655D46CA3FD419F,缘生桥,,118.707,32.1777,公园户外,18,0025,25,1.388888888
B2094655D46CA3FD439E,聚情桥,,119.115,31.31,公园户外,39,0025,44,1.128205128
B2094655D46CA3FD4498,群英桥,,118.723,32.2051,公园户外,7,0025,7,1
B2094655D46CA3FD4599,南京长江隧道,,118.679,32.0509,公园户外,569,0025,623,1.094903339
B2094655D46CA3FD459C,新颜桥,,119.028,32.4679,公园户外,6,0025,7,1.166666666
B2094655D46CA3FD4699,新禹桥,,118.952,32.3188,公园户外,8,0025,8,1
B2094655D46CA3FD469B,西沟桥,,118.956,32.2544,公园户外,12,0025,15,1.25
B2094655D46CA3FD489D,方桥河桥,,118.72,32.3882,公园户外,5,0025,5,1
B2094655D46CA3FE4092,兰亭桥,,118.621,32.0569,公园户外,9,0025,58,6.444444444
B2094655D46CA3FE4093,观音庵桥,,118.581,32.0015,公园户外,38,0025,39,1.026315789
B2094655D46CA3FE429F,葛新桥,,118.74,32.2546,公园户外,6,0025,15,2.5
B2094655D664A4F54392,拉德芳斯梧桐花园,南京市建邺区恒山路130号,118.729,31.9964,住宅区,178,0025,358,2.011235955
B2094655D664A4F5449E,敖包相会,,118.734,31.9896,中餐厅,4,0025,4,1
B2094655D664A4F5449F,兴元嘉园,建邺区嵩山路135号,118.737,31.9943,住宅区,51,0025,268,5.25490196
B2094655D664A4F5459A,双和园,雨润大街19号,118.725,31.981,住宅区,141,0025,572,4.056737588
B2094655D664A4F5459B,朗诗国际街区,河西大街与庐山路交汇处,118.724,31.9918,住宅区,595,0025,1516,2.547899159
B2094655D664A4F8409D,西善桥站,西善桥北路67,118.724,31.9668,火车站,35,0025,89,2.542857142
B2094655D664A4F8479F,南京军人卤菜店,,118.652,31.9229,餐饮美食,1,0025,1,1
B2094655D664A4F9419C,国关购物中心,,118.654,31.9225,商场,7,0025,7,1
B2094655D664A4F9419D,机关食堂西部面点王,振兴路81号,118.654,31.9224,特色／地方风味餐厅,4,0025,9,2.25
B2094655D664A4F94299,国关教学餐厅,,118.657,31.923,中餐厅,5,0025,5,1
B2094655D664A4F94799,桃源酒楼(振兴路),正达公寓南,118.649,31.9235,江苏菜,1,0025,1,1
B2094655D664A4F9499A,南京雨花台区西善桥街道福润雅居,白下区福润雅居(近龙西路),118.733,31.95,快餐厅,456,0025,1150,2.521929824
B2094655D664A4F9499D,泰山公寓,西善桥泰山公寓,118.727,31.9491,住宅区,12,0025,50,4.166666666
B2094655D664A4F9499E,天虹山庄,铁心桥-外秦淮河畔,118.729,31.9486,住宅区,33,0025,455,13.787878787
B2094655D664A4FA449E,江村农俗园,果园路,118.687,31.996,江苏菜,5,0025,5,1
B2094655D664A4FB419A,乾元浩生物股份有限公司南京生物药厂,中华门外小行里51号,118.748,31.9849,公司,3,0025,3,1
B2094655D664A4FB489E,南京建工集团有限公司,,118.747,31.9782,公司,21,0025,29,1.38095238
B2094655D664A4FC4499,南京市板桥中学,雨花台区板桥街道宁谷路106号,118.665,31.9179,中学,30,0025,37,1.233333333
B2094655D664A4FC469A,钟山驾驶员培训学校,,118.754,31.9457,驾校,8,0025,9,1.125
B2094655D664A4FC469F,韩府山庄(东门),,118.754,31.9429,大门,2,0025,3,1.5
B2094655D664A4FC479D,李记小吃,,118.753,31.936,快餐厅,2,0025,2,1
B2094655D664A4FC499C,韩府山庄(西门),,118.752,31.943,大门,41,0025,105,2.560975609
B2094655D664A4FD429B,秦淮新寓,西善桥62号,118.722,31.9494,住宅区,7,0025,14,2
B2094655D664A4FD4499,老南京水西门鸭子店,泰山南路,118.724,31.953,快餐厅,2,0025,4,2
B2094655D664A4FD449E,正宗徐州侉子全羊馆,,118.724,31.953,中餐厅,3,0025,4,1.333333333
B2094655D664A4FD459B,梅岭面馆,建邺区油坊桥地铁站(近莲花北苑),118.721,31.9665,特色／地方风味餐厅,3,0025,4,1.333333333
B2094655D664A4FD4693,点将台公寓,,118.719,31.9511,住宅区,20,0025,76,3.8
B2094655D664A4FD469D,梅岭南门,,118.721,31.9519,住宅区,5,0025,9,1.8
B2094655D664A4FD479A,上海梅山第二中学南门,,118.721,31.9493,中学,1,0025,1,1
B2094655D664A4FD479C,梅欣社区西区,,118.712,31.9523,住宅区,8,0025,25,3.125
B2094655D664A4FD4999,四海百货,,118.666,31.939,商场,3,0025,10,3.333333333
B2094655D664A4FE4092,红庙酒家,宁芜公路,118.67,31.934,江苏菜,3,0025,3,1
B2094655D664A4FE439D,中国工商银行南京板桥分理处,振兴路41,118.66,31.9211,银行,2,0025,2,1
B2094655D664A4FE4599,南京雨花台区金胜码头,,118.663,31.9627,港口码头,14,0025,14,1
B2094655D664A4FF439B,上海梅山高级中学,上海南京西善桥梅山矿区秦淮河畔,118.717,31.9521,中学,105,0025,215,2.047619047
B2094655D664A4FF4499,大众花园,,118.729,31.9714,住宅区,21,0025,216,10.285714285
B2094655D664A4FF459B,舒沁咖啡,,118.724,31.967,咖啡厅,66,0025,100,1.515151515
B2094655D664A4FF469F,海天茶楼,,118.719,31.9603,茶艺馆,11,0025,30,2.727272727
B2094655D664A4FF4899,明华家园,西善桥北路101,118.719,31.9602,住宅区,22,0025,50,2.272727272
B2094655D664A5F44093,5.23休闲吧,,118.755,31.9589,生活娱乐,8,0025,10,1.25
B2094655D664A5F4409A,江南码头,,118.677,31.9821,港口码头,7,0025,7,1
B2094655D664A5F44199,东升山庄,南京市西善桥福润雅居对面苏果超市旁,118.732,31.9569,住宅区,84,0025,329,3.916666666
B2094655D664A5F44398,明豪花园,贾东村101,118.732,31.9722,住宅区,27,0025,79,2.925925925
B2094655D664A5F4499C,小四川家常菜,,118.75,31.9631,四川菜,2,0025,2,1
B2094655D664A5F54399,双骏楼大酒店,,118.704,31.9528,旅馆招待所,5,0025,14,2.8
B2094655D664A5F54892,静华公寓,杨村附近,118.654,31.9196,住宅区,21,0025,60,2.857142857
B2094655D664A5FA449F,浦口区桥林镇陡岗中学,,118.468,31.9383,中学,30,0025,39,1.3
B2094655D664A5FA4599,梅山运翔码头,,118.622,31.9382,港口码头,9,0025,12,1.333333333
B2094655D664A5FA459C,将城子古文化遗址,,118.546,31.9629,国家级景点,26,0025,46,1.769230769
B2094655D664A5FA459E,凤翔码头,,118.621,31.9358,港口码头,8,0025,8,1
B2094655D664A5FA4893,南京三桥服务区,,118.61,31.9838,公园户外,123,0025,145,1.178861788
B2094655D664A5FA4898,(南京三桥服务区)餐厅,南京三桥服务区,118.609,31.9851,快餐厅,12,0025,12,1
B2094655D664A5FA499C,板桥派出所,板桥街,118.661,31.9218,警察局,6,0025,12,2
B2094655D664A5FA499D,水利公园,板桥汽渡东,118.649,31.9526,公园,13,0025,15,1.153846153
B2094655D664A5FA499F,南京市板桥小学,,118.657,31.919,小学,7,0025,22,3.142857142
B2094655D664A5FB4092,上海梅山第二中学,,118.72,31.9501,中学,14,0025,24,1.714285714
B2094655D664A5FB409D,上海梅山医院(分院),宁桥北路,118.708,31.9471,医院,19,0025,33,1.736842105
B2094655D664A5FB419D,三江学院,近郊铁心桥龙西路10号(近春江新城),118.75,31.9586,高校中心点,4739,0025,23572,4.974045157
B2094655D664A5FB4292,南京水利科学研究院试验研究基地,,118.748,31.9524,科研机构,13,0025,24,1.846153846
B2094655D664A5FB429E,江苏省地质矿产局第一地质大队,贾东村105,118.734,31.9715,科研机构,12,0025,17,1.416666666
B2094655D664A5FB439C,中国苏酒会务中心,,118.682,31.9224,会展中心,13,0025,27,2.076923076
B2094655D664A5FB439F,爱博美服装(南京)有限公司,,118.682,31.923,公司,3,0025,3,1
B2094655D664A5FB499C,天龙小吃店,,118.747,31.9613,快餐厅,4,0025,6,1.5
B2094655D664AAF4409A,南京市天景山中学,,118.878,31.9438,中学,20,0025,31,1.55
B2094655D664AAF44692,恒安嘉园,江宁区竹山路,118.856,31.931,住宅区,101,0025,419,4.148514851
B2094655D664AAF4469E,致远大厦,天元东路,118.851,31.9335,楼宇,21,0025,114,5.428571428
B2094655D664AAF5409C,欣园阁酒店,江宁区莱茵达路219号(近新亭路),118.858,31.9367,江苏菜,5,0025,5,1
B2094655D664AAF5409E,风和日丽花园,江宁科学园天元东路北侧，上元路西侧,118.862,31.9376,住宅区,12,0025,90,7.5
B2094655D664AAF5479A,天元城摩登道,莱茵达路98,118.856,31.9396,住宅区,19,0025,136,7.157894736
B2094655D664AAF8459F,南京义乌小商品城B区,,118.875,31.9389,小商品市场,20,0025,23,1.15
B2094655D664AAF84799,中国移动通信(南京市天景山中学北),,118.876,31.9503,家电电子卖场,3,0025,4,1.333333333
B2094655D664AAF9469A,椰树座,,118.851,31.9408,住宅区,15,0025,34,2.266666666
B2094655D664AAF9489E,檀香座,成墟路28号,118.854,31.9401,住宅区,40,0025,296,7.4
B2094655D664AAF9489F,花语座,江宁区天元城,118.854,31.9374,住宅区,33,0025,106,3.212121212
B2094655D664AAFA409B,天元城幼儿园,,118.854,31.9389,幼儿园,8,0025,31,3.875
B2094655D664AAFA459C,金宝天印山农副产品批发大市场,,118.861,31.9432,便民商店/便利店,25,0025,37,1.48
B2094655D664AAFB4293,能林牛肉面炒菜馆,,118.874,31.9444,中餐厅,2,0025,2,1
B2094655D664AAFB439E,南京市江宁欣荣幼儿园,,118.875,31.9415,幼儿园,12,0025,17,1.416666666
B2094655D664AAFB439F,操记酸菜鱼馆,,118.876,31.9409,中餐厅,6,0025,13,2.166666666
B2094655D664AAFB489D,南京江宁科学园综合管理办公室,,118.844,31.9214,公司,7,0025,25,3.571428571
B2094655D664AAFB4992,潭桥公寓北园,,118.849,31.9249,住宅区,143,0025,329,2.3006993
B2094655D664AAFB499B,观竹苑,,118.842,31.9293,住宅区,43,0025,118,2.744186046
B2094655D664AAFC499D,基督教东山中心堂,,118.872,31.957,教堂,23,0025,30,1.304347826
B2094655D664AAFD4493,春晓·风荷苑,江宁开发区,118.863,31.9324,住宅区,9,0025,39,4.333333333
B2094655D664AAFD449D,城开·景祥佳园,宏运大道4599号,118.86,31.9676,住宅区,131,0025,561,4.282442748
B2094655D664AAFD459A,江宁区方山街道社区卫生服务中心莱茵东郡社区卫生服务站,,118.86,31.9356,医院,4,0025,6,1.5
B2094655D664AAFE429F,机场村流动人口管理站,,118.844,31.9767,生活娱乐,2,0025,2,1
B2094655D664AAFE4392,比家美,富民路,118.845,31.9771,江苏菜,1,0025,3,3
B2094655D664AAFE4592,天乐池大浴场,江宁区上元大街,118.869,31.9592,洗浴推拿场所,3,0025,7,2.333333333
B2094655D664AAFF409C,教工新寓(文华街),文华街50,118.843,31.9624,住宅区,11,0025,132,12
B2094655D664AAFF4198,西部面馆(康馨花园北),文靖路59号,118.842,31.9601,中餐厅,1,0025,4,4
B2094655D664AAFF449A,科学园派出所科苑社区警务室,,118.849,31.9356,生活娱乐,1,0025,1,1
B2094655D664AAFF449B,科苑公寓,兴民北路18,118.849,31.9348,住宅区,6,0025,15,2.5
B2094655D664ABF4409E,苏果平价店(文靖路),文靖路399,118.851,31.9606,便民商店/便利店,55,0025,144,2.618181818
B2094655D664ABF4409F,汇景新苑,文靖路377号,118.85,31.9608,住宅区,144,0025,862,5.986111111
B2094655D664ABF8409D,金箔集团南京鑫元机电工业区,科宁路268,118.852,31.9237,产业园区,4,0025,94,23.5
B2094655D664ABF8419C,南京奥赛康医药集团(科建路),科建路699号,118.868,31.9321,公司,15,0025,31,2.066666666
B2094655D664ABF8439A,宁电馨苑,南京市江宁区兴民北路1号,118.851,31.9363,住宅区,26,0025,172,6.615384615
B2094655D664ABF8449D,兴民工业园,科苑路128号,118.853,31.9314,产业园区,2,0025,2,1
B2094655D664ABF8469E,南京光电仪器产业有限公司,开源路168号,118.857,31.9277,公司,5,0025,5,1
B2094655D664ABF84798,DORON,,118.868,31.9251,公司,6,0025,6,1
B2094655D664ABF84799,南京五洲制冷集团公司,天印大道1529,118.866,31.9362,公司,6,0025,11,1.833333333
B2094655D664ABF8479A,南京义乌小商品城A区,江宁区秣陵街道天元东路388号,118.877,31.9396,小商品市场,260,0025,411,1.58076923
B2094655D664ABF8489A,南京江宁高新技术创业服务中心,,118.859,31.9366,公司,6,0025,6,1
B2094655D664ABF8489E,中圣集团(诚信大道),诚信大道2111,118.863,31.9184,公司,6,0025,6,1
B2094655D664ABF8489F,江苏舜天服饰有限公司,诚信大道2099,118.861,31.9169,公司,5,0025,14,2.8
B2094655D664ABF8499C,航天晨光股份有限公司(天元中路),,118.823,31.9284,公司,7,0025,7,1
B2094655D664ABF9409F,方山派出所,方山街道,118.868,31.9161,警察局,28,0025,35,1.25
B2094655D664ABF9419D,南京市上元中学,江宁区天印大道701,118.858,31.9604,中学,53,0025,107,2.018867924
B2094655D664ABF9419F,书香名苑,江宁区天印大道388号,118.865,31.9398,住宅区,82,0025,347,4.231707317
B2094655D664ABF94392,中国银行南京江宁科学园支行,江宁区竹山路359号(近新亭路),118.846,31.9352,银行,12,0025,13,1.083333333
B2094655D664ABF9439E,万欣花园,竹山路378,118.845,31.9352,住宅区,77,0025,384,4.987012987
B2094655D664ABF9449A,中国移动通信集团江苏有限公司江宁分公司,竹山路339,118.846,31.9357,公司,8,0025,11,1.375
B2094655D664ABF9469F,东山派出所,竹山电子街天泰路2号,118.848,31.9361,警察局,27,0025,74,2.74074074
B2094655D664ABF94798,北京广播学院南广学院,天印大道1399号,118.866,31.9413,高等院校,9,0025,11,1.222222222
B2094655D664ABF9479B,中国传媒大学南广学院(天印大道),天印大道1399号,118.866,31.9414,高等院校,222,0025,357,1.608108108
B2094655D664ABF9489B,金钥匙大厦,竹山路88号,118.846,31.9327,楼宇,3,0025,3,1
B2094655D664ABFA4192,天元城,新亭路9,118.854,31.9427,住宅区,180,0025,645,3.583333333
B2094655D664ABFA4198,万欣大酒店,江宁区竹山路412号,118.845,31.9338,旅馆招待所,2,0025,2,1
B2094655D664ABFB429E,明月新寓花园,天印大道1088,118.862,31.9501,住宅区,73,0025,272,3.726027397
B2094655D664ABFB479A,盱眙十三香龙虾馆,,118.857,31.9611,海鲜酒楼,2,0025,4,2
B2094655D664ABFB499E,章村新寓,文靖路457,118.853,31.9606,住宅区,12,0025,64,5.333333333
B2094655D664ABFC409D,南京小行医院(小行路),小行路,118.745,31.9843,医院,31,0025,52,1.677419354
B2094655D664ABFC449C,南京市小行小学附属幼儿园,,118.747,31.9811,幼儿园,3,0025,8,2.666666666
B2094655D664ABFC4592,南京市沙洲中学,,118.743,31.9863,中学,4,0025,4,1
B2094655D664ABFC459B,东方威尼斯皇家温泉,,118.751,31.9939,洗浴推拿场所,18,0025,23,1.277777777
B2094655D664ABFC4799,金洲苑小区,小青路42号,118.741,31.9872,住宅区,25,0025,130,5.2
B2094655D664ABFC4893,花神大厦,阅城大道20-1,118.753,31.9752,楼宇,50,0025,114,2.28
B2094655D664ABFC4993,(铁心桥服务区)商场,,118.745,31.9657,商场,15,0025,16,1.066666666
B2094655D664ABFC499A,(铁心桥服务区)风味小吃,,118.745,31.9657,快餐厅,3,0025,3,1
B2094655D664ABFD419F,得月美食店,,118.862,31.987,中餐厅,5,0025,14,2.8
B2094655D664ABFD4699,好再来酒家,双麒路,118.809,31.9761,江苏菜,0,0025,0,0
B2094655D664ABFD469B,阳光大酒店,,118.812,31.9762,旅馆招待所,6,0025,6,1
B2094655D664ABFE4298,江宁工业园流动人口公寓,同夏路51,118.861,31.9552,住宅区,5,0025,7,1.4
B2094655D664ABFE469C,好邻居超市(潘村),,118.86,31.9887,便民商店/便利店,4,0025,7,1.75
B2094655D664ABFE4798,章村工业园,,118.856,31.9695,产业园区,9,0025,9,1
B2094655D664ABFE489D,石羊公园,江宁区天印大道,118.857,31.9637,公园,46,0025,103,2.239130434
B2094655D664ABFE499B,维兰餐厅,,118.856,31.9679,中餐厅,6,0025,6,1
B2094655D664ABFF419E,蓝园文院,文华街57,118.843,31.9641,住宅区,4,0025,139,34.75
B2094655D664ABFF4798,南京票据证券印刷有限公司(科建路),,118.86,31.9292,公司,4,0025,10,2.5
B2094655D664ABFF4799,汉德森(科建路),,118.869,31.9318,公司,9,0025,75,8.333333333
B2094655D664ABFF479E,东山工业集中区,,118.872,31.93,产业园区,7,0025,8,1.142857142
B2094655D664ABFF4893,南京高速齿轮制造有限公司,莱茵达路299,118.862,31.9283,公司,30,0025,53,1.766666666
B2094655D664ABFF489A,南京市天景山小学,,118.879,31.9441,小学,15,0025,17,1.133333333
B2094655D664ABFF489D,南京欣迪药业,,118.863,31.9247,医院,2,0025,2,1
B2094655D664ABFF499E,苏果社区店(莱茵达路),,118.857,31.9393,便民商店/便利店,11,0025,31,2.818181818
B2094655D664ABFF499F,天景山公寓佳福苑,义乌小商品城对,118.877,31.9489,住宅区,76,0025,619,8.144736842
B2094655D665A0F8419B,红袖茶楼,上元二街331,118.847,31.9534,茶艺馆,3,0025,5,1.666666666
B2094655D665A0FD4592,南京江宁供电营业厅,上元大街600号,118.85,31.9548,其他,2,0025,2,1
B2094655D665A0FD459D,江宁供电公司,上元大街598,118.85,31.9546,公司,7,0025,9,1.285714285
B2094655D665A1F94393,迪卡侬运动专业超市,近郊雨花台区宁溧路286号(近卡子门大街),118.803,31.9799,体育用品店,34,0025,35,1.029411764
B2094655D665A1FC4392,河海大学体育系,,118.788,31.9147,高等院校,27,0025,35,1.296296296
B2094655D665A1FC4393,福音农家餐馆,近郊雨花台区将军山风景区1号(将军山公园路口),118.753,31.9293,江苏菜,24,0025,28,1.166666666
B2094655D665A1FC4399,教学区一餐厅,黄海路,118.785,31.9169,江苏菜,11,0025,40,3.636363636
B2094655D665A1FC4899,伦敦城,江宁经济技术开发区利源中路168号,118.808,31.9319,住宅区,21,0025,41,1.952380952
B2094655D665A1FC489A,南京市翠屏山小学,,118.802,31.9399,小学,13,0025,15,1.153846153
B2094655D665A1FC489B,颐和美地西园,江宁区颐和美地西园,118.804,31.9235,住宅区,68,0025,116,1.705882352
B2094655D665A1FC489F,春天广场,,118.805,31.9403,城市广场,6,0025,22,3.666666666
B2094655D665A1FD4799,江苏无线电厂,,118.802,31.9935,公司,11,0025,66,6
B2094655D665A1FD479E,新奇特车业服务广场,秦淮区大明路276号,118.803,31.991,公园户外,24,0025,25,1.041666666
B2094655D665A1FE4993,南京大明路汽车驾驶员培训学校,秦淮区大明路191号,118.805,31.9929,驾校,29,0025,41,1.413793103
B2094655D665A1FE499F,南京市机动车综合性能检测中心,,118.809,31.9972,公园户外,8,0025,11,1.375
B2094655D665A1FF409C,南京新久久汽车装潢有限公司卡子门分公司,香叶树48号,118.801,31.9837,汽车维修,3,0025,3,1
B2094655D665A2F4479D,水韵雨滴苑,南京市江宁区佛城东路66号,118.797,31.9148,住宅区,14,0025,16,1.142857142
B2094655D665A2F5459A,爱涛艺术中心,,118.799,31.9267,会展中心,33,0025,50,1.515151515
B2094655D665A2F5479E,中材科技股份有限公司双威事业部,将军南路99,118.793,31.9177,公司,3,0025,6,2
B2094655D665A2F8419E,百家湖博物馆,南京市江宁区利源中路99号凯旋门内,118.808,31.9352,博物馆,39,0025,85,2.179487179
B2094655D665A2F84598,厂家直销骨灰盒,,118.797,31.9728,专卖店,26,0025,27,1.038461538
B2094655D665A2FB449D,太平社区计生妇幼保健服务室,,118.801,31.9412,医院,3,0025,4,1.333333333
B2094655D665A2FB459E,南京市公安局开发区交巡警中队,通淮街98号,118.802,31.9327,公园户外,9,0025,11,1.222222222
B2094655D665A2FB479F,新东新鹅馆,江宁区苏源大道5号(近苏源颐和美地),118.809,31.9233,江苏菜,46,0025,71,1.54347826
B2094655D665A2FC4299,静明寺纪念林,,118.766,31.9387,公园户外,9,0025,10,1.111111111
B2094655D665A2FC4793,和风便当,,118.757,31.9593,中餐厅,8,0025,9,1.125
B2094655D665A2FC4899,学子之家(历史与文化地图研究院),春晓路,118.756,31.959,江苏菜,5,0025,5,1
B2094655D665A2FC489B,灰色,,118.756,31.9591,生活娱乐,15,0025,34,2.266666666
B2094655D665A2FD409B,随意小吃(宁丹路),,118.762,31.9585,快餐厅,1,0025,1,1
B2094655D665A2FE4093,铁心桥派出所,铁心桥,118.762,31.9622,警察局,10,0025,11,1.1
B2094655D665A2FE419A,水利部南京水利水文自动化研究所,,118.763,31.9605,科研机构,7,0025,26,3.714285714
B2094655D665A2FE4492,千禧影视厅,,118.791,31.9216,电影院,2,0025,3,1.5
B2094655D665A2FE449C,零点烧鸡公,将军大道99-36,118.791,31.9213,中餐厅,3,0025,3,1
B2094655D665A2FF4293,欧陆经典花园,胜太西路28,118.804,31.944,住宅区,73,0025,235,3.219178082
B2094655D665A2FF429D,敦煌千子莲足道,,118.804,31.9441,洗浴推拿场所,9,0025,10,1.111111111
B2094655D665A2FF429E,天琪雅居,胜太西路16,118.805,31.9441,住宅区,13,0025,35,2.692307692
B2094655D665A2FF4699,南京世界村,湖滨路15,118.81,31.9422,住宅区,15,0025,31,2.066666666
B2094655D665A2FF469C,百家湖西苑,湖滨路18,118.811,31.9419,住宅区,9,0025,13,1.444444444
B2094655D665A3F4409D,美之国花园,江宁开发区将军大道2号,118.77,31.9556,住宅区,195,0025,634,3.251282051
B2094655D665A3F4419E,江苏南京机场高速公路管理处,天元西路168,118.796,31.9277,公司,13,0025,13,1
B2094655D665A3F44293,湖滨世纪花园,江宁开发区利源中路88号,118.807,31.9419,住宅区,144,0025,532,3.694444444
B2094655D665A3F4439F,水秀苑大酒店,江宁区百家湖佳湖西路11号,118.811,31.9357,江苏菜,507,0025,704,1.388560157
B2094655D665A3F84998,04号楼男生公寓,,118.88,31.9278,住宅区,69,0025,216,3.130434782
B2094655D665A3F84999,01号楼女生公寓,,118.88,31.9268,住宅区,111,0025,335,3.018018018
B2094655D665A3F8499A,03号楼男生公寓,,118.88,31.9288,住宅区,68,0025,217,3.19117647
B2094655D665A3F8499B,02号楼男生公寓,,118.88,31.9278,住宅区,18,0025,45,2.5
B2094655D665A3F8499E,飞兆国际,,118.879,31.9251,楼宇,30,0025,62,2.066666666
B2094655D665A3F94893,钟山学院铁心桥校区,铁心桥,118.755,31.9488,高等院校,9,0025,9,1
B2094655D665A3F94998,水韵别墅东门,佛城东路88,118.801,31.9167,住宅区,16,0025,61,3.8125
B2094655D665A3F9499B,水韵别墅西门,佛城东路88,118.798,31.9153,住宅区,16,0025,24,1.5
B2094655D665A3FA4199,南京英华学校,将军大道22号,118.789,31.9305,职业技术学校,144,0025,431,2.993055555
B2094655D665A3FA419D,瑞景文华,将军大道50,118.791,31.9224,住宅区,75,0025,392,5.226666666
B2094655D665A3FA419F,南京钟山外国语专修学院,江宁区将军大道22号,118.789,31.9305,高等院校,2,0025,2,1
B2094655D665A3FA4293,江宁区工商行政管理局开发区工商分局,,118.804,31.9319,公园户外,17,0025,61,3.588235294
B2094655D665A3FA429B,挪威森林,将军大道33号,118.789,31.9314,住宅区,390,0025,1091,2.797435897
B2094655D665A3FA429C,南京市公安局江宁分局开发区派出所,通淮街,118.804,31.933,警察局,33,0025,53,1.606060606
B2094655D665A3FA4398,南京市江宁医院开发区分院,江宁区双龙大道,118.802,31.9313,医院,18,0025,24,1.333333333
B2094655D665A3FA439A,海花苑,高湖路1号,118.806,31.9243,住宅区,16,0025,182,11.375
B2094655D665A3FA449A,爱涛漪水园,鼓楼区龙北小区,118.802,31.9214,住宅区,101,0025,280,2.772277227
B2094655D665A3FA4692,百家湖西花园,玄武区红山路115号,118.808,31.9322,住宅区,373,0025,1023,2.742627345
B2094655D665A3FA479E,南京市公安局交通管理局禄口机场高速公路大队,天元西路170号,118.793,31.9273,公园户外,9,0025,10,1.111111111
B2094655D665A3FA489A,江苏海外集团,利源南路8,118.808,31.9257,公司,26,0025,118,4.538461538
B2094655D665A3FA489B,科倍隆科亚(南京)机械有限公司,天元西路59号,118.813,31.9282,公司,2,0025,3,1.5
B2094655D665A3FA499B,颐心园,南京市江宁区高湖路,118.816,31.924,住宅区,5,0025,8,1.6
B2094655D665A3FB449D,东恒国际大厦,双龙大道,118.821,31.9277,楼宇,10,0025,20,2
B2094655D665A3FB469A,江宁开发区百家湖科技产业园,,118.822,31.9163,产业园区,47,0025,94,2
B2094655D665A3FB469C,苏源颐和美地东园,江宁区苏源大道8号,118.809,31.9226,住宅区,29,0025,58,2
B2094655D665A3FB469F,将军山食府(苏源大道),将军大道97-25号,118.791,31.9248,江苏菜,7,0025,9,1.285714285
B2094655D665A3FB4993,江苏法官培训学院,江宁区康厚街8号,118.782,31.9165,高等院校,76,0025,118,1.552631578
B2094655D665A3FF4592,高淳藏香阁酒店,江宁区金箔路81号(近中国金箔艺术馆),118.859,31.9522,江苏菜,5,0025,6,1.2
B2094655D665A4F4479D,江苏省溧水县实验小学,,119.03,31.6552,小学,7,0025,10,1.428571428
B2094655D665A4F54098,溧水县城西医院,大西门2号,119.025,31.6536,医院,2,0025,2,1
B2094655D665A4F54598,德兴坊,溧水区通济街商业广场7幢10号-11号,119.029,31.6574,糕饼店,8,0025,8,1
B2094655D665A4F84092,春盛渔府(湖熟镇北),三七七省道与瑞泽路交叉口往东南,118.975,31.8708,海鲜酒楼,10,0025,15,1.5
B2094655D665A4F84192,南广学院第一食堂,,118.89,31.8841,中餐厅,33,0025,35,1.06060606
B2094655D665A4F8419C,南广学院教学楼三区,,118.887,31.8824,高等院校,66,0025,104,1.575757575
B2094655D665A4F8419D,南广学院教学楼二区,,118.888,31.8818,高等院校,199,0025,475,2.386934673
B2094655D665A4F8419E,南广学院二食堂,,118.891,31.8857,中餐厅,22,0025,25,1.136363636
B2094655D665A4F84292,大学生生活服务中心,,118.906,31.8947,生活娱乐,14,0025,16,1.142857142
B2094655D665A4F84293,校园美食坊,知行路,118.906,31.8948,江苏菜,4,0025,4,1
B2094655D665A4F8429A,南广学院学生公寓,南京中国传媒大学南广学院,118.888,31.8851,住宅区,1125,0025,3751,3.334222222
B2094655D665A4F84392,南京晓庄学院教育科学学院,,118.901,31.8937,高等院校,12,0025,28,2.333333333
B2094655D665A4F84393,南京晓庄学院外国语学院,,118.901,31.8937,高等院校,20,0025,25,1.25
B2094655D665A4F8439F,南京晓庄学院舞蹈房,,118.905,31.8971,运动场所,12,0025,16,1.333333333
B2094655D665A4F84492,中国药科大学校园便利店,,118.919,31.8988,便民商店/便利店,3,0025,3,1
B2094655D665A4F84498,南京晓庄学院图书馆,,118.899,31.8949,图书馆,782,0025,1857,2.374680306
B2094655D665A4F8449A,南京晓庄学院生命科学系实验教学中心,,118.901,31.8914,高等院校,9,0025,11,1.222222222
B2094655D665A4F8449B,南京晓庄学院学生公寓,南京,118.904,31.8919,住宅区,1533,0025,7095,4.628180039
B2094655D665A4F8449C,中国药科大学浴室,,118.921,31.9002,洗浴推拿场所,16,0025,24,1.5
B2094655D665A4F8449D,中国药科大学第一餐厅,江苏省南京江宁区龙眠大道639号中国药科大学江宁校区,118.92,31.9004,中餐厅,9,0025,9,1
B2094655D665A4F8449E,中国药科大学第一食堂,龙眠大道639号中国药科大学内,118.914,31.8984,快餐厅,63,0025,87,1.38095238
B2094655D665A4F84592,印心湖餐厅,知行路,118.897,31.9126,江苏菜,3,0025,3,1
B2094655D665A4F84599,中国药科大学综合门诊部,,118.921,31.9005,医院,16,0025,18,1.125
B2094655D665A4F8459A,中国药科大学二餐厅,龙眠大道,118.919,31.9007,快餐厅,51,0025,73,1.431372549
B2094655D665A4F8459C,中国药科大学实验楼,,118.913,31.902,高等院校,61,0025,93,1.524590163
B2094655D665A4F8459E,中国药科大学教学楼,,118.916,31.899,高等院校,75,0025,209,2.786666666
B2094655D665A4F8459F,中国药科大学经管文楼,江苏省南京江宁区龙眠大道639号中国药科大学江宁校区,118.913,31.9015,高等院校,21,0025,28,1.333333333
B2094655D665A4F84692,方山烧烤园,,118.882,31.8967,休闲场所,39,0025,43,1.102564102
B2094655D665A4F8469C,金陵科技学院女生宿舍东苑幢,,118.902,31.9051,住宅区,19,0025,36,1.894736842
B2094655D665A4F8469E,金陵科技学院学生一宿舍,,118.899,31.9076,住宅区,18,0025,62,3.444444444
B2094655D665A4F8469F,金陵科技学院学生四宿舍,,118.9,31.9055,住宅区,10,0025,25,2.5
B2094655D665A4F84793,南京江宁滨江经济开发区,,118.592,31.8305,产业园区,854,0025,1377,1.612412177
B2094655D665A4F84899,江宁区铜井社区卫生服务中心,,118.549,31.7866,医院,7,0025,27,3.857142857
B2094655D665A4F8489B,铜井中心小学生活区,,118.549,31.7912,住宅区,12,0025,26,2.166666666
B2094655D665A4F9409E,铜井站,铜井镇,118.567,31.7987,火车站,26,0025,28,1.076923076
B2094655D665A4F94199,白鹭湖度假山庄,,118.734,31.8118,度假疗养场所,32,0025,39,1.21875
B2094655D665A4F9419F,上国安寺,,118.724,31.7718,寺庙道观,13,0025,13,1
B2094655D665A4F94293,江宁区秣陵初级中学,江苏省南京市江宁区秣陵镇秣陵集镇,118.836,31.8288,中学,34,0025,46,1.352941176
B2094655D665A4F94298,江宁镇花塘社区卫生服务站,,118.658,31.8119,医院,5,0025,5,1
B2094655D665A4F9429E,江宁县陆郎镇花塘小学,,118.658,31.8125,小学,2,0025,2,1
B2094655D665A4F9449B,陶吴镇跨世纪商场,,118.776,31.7758,商场,11,0025,11,1
B2094655D665A4F9459B,良友综合商场,,118.775,31.7772,商场,1,0025,1,1
B2094655D665A4F9459D,苏果超市(陶吴镇西),,118.775,31.7753,便民商店/便利店,13,0025,15,1.153846153
B2094655D665A4F9459E,桃红楼商场,,118.774,31.7756,商场,13,0025,14,1.076923076
B2094655D665A4F9489C,江家园菜馆,金宁路7号,118.776,31.7769,江苏菜,5,0025,5,1
B2094655D665A4F94993,文豪花园,江宁区禄口镇,118.874,31.7774,住宅区,4,0025,5,1.25
B2094655D665A4F9499A,禄口中学,,118.856,31.7866,中学,12,0025,69,5.75
B2094655D665A4F9499B,禄口小学,,118.854,31.784,小学,8,0025,9,1.125
B2094655D665A4F9499D,永欣新寓东大门,,118.87,31.7687,住宅区,25,0025,72,2.88
B2094655D665A4F9499E,永欣新寓北大门,,118.86,31.7703,住宅区,59,0025,104,1.762711864
B2094655D665A4FA409E,禄口镇第二幼儿园,,118.872,31.7726,幼儿园,14,0025,20,1.428571428
B2094655D665A4FA4192,禄都大酒店,,118.865,31.7731,旅馆招待所,7,0025,7,1
B2094655D665A4FA4399,南京国际小商品城,禄口镇秦禄大道2号,118.86,31.7874,小商品市场,25,0025,46,1.84
B2094655D665A4FA439D,香港通用钢构,,118.791,31.7675,公司,5,0025,7,1.4
B2094655D665A4FA4593,兴业苑,,118.812,31.6952,住宅区,3,0025,138,46
B2094655D665A4FA459C,空都酒店,纬二路,118.877,31.733,江苏菜,6,0025,8,1.333333333
B2094655D665A4FA459F,南山风景区,,118.772,31.6883,国家级景点,18,0025,18,1
B2094655D665A4FA469B,南京市蔬菜花卉科学研究所科技园,南京市江宁区205县道横溪镇吴楚西路镇政府对过,118.777,31.7195,产业园区,45,0025,51,1.133333333
B2094655D665A4FA4798,南京禄口国际机场汉莎航空食品有限公司,,118.876,31.7327,公司,5,0025,5,1
B2094655D665A4FA479E,南京空港宾馆,江宁区禄口机场内近候机楼,118.877,31.7342,三星级宾馆,81,0025,85,1.049382716
B2094655D665A4FA4892,中国民航学院乘务学院南京分院,,118.883,31.7358,职业技术学校,22,0025,26,1.181818181
B2094655D665A4FA489A,南京禄口国际机场第二职工食堂,纬六路,118.873,31.7329,快餐厅,7,0025,7,1
B2094655D665A4FA489E,机场美食苑,禄口国际机场,118.881,31.7365,江苏菜,8,0025,8,1
B2094655D665A4FA499B,东航江苏公司货运,,118.882,31.7407,生活娱乐,16,0025,23,1.4375
B2094655D665A4FA499F,苏果便民店溧水清河店,,118.988,31.6773,便民商店/便利店,4,0025,4,1
B2094655D665A4FB4298,空港宾馆分部,,118.889,31.7413,公园户外,5,0025,6,1.2
B2094655D665A4FB429D,天人佳园,溧水县经济开发区双塘南路2号,119.027,31.6657,住宅区,24,0025,77,3.208333333
B2094655D665A4FB439A,航天晨光股份有限公司,,119.074,31.6658,公司,27,0025,60,2.222222222
B2094655D665A4FB4498,屏湖山庄,近郊溧水县屏湖路88号(近东湖北路),119.123,31.6955,江苏菜,74,0025,90,1.216216216
B2094655D665A4FB449A,金水湾国际度假村,南京市溧水县东屏镇金山路188号,119.127,31.6957,度假疗养场所,426,0025,607,1.424882629
B2094655D665A4FB469A,溧水县汽车驾驶员培训学校,,118.997,31.6008,驾校,25,0025,30,1.2
B2094655D665A4FB489E,溧水县人民医院,永阳镇中大街35号,119.026,31.6514,医院,49,0025,162,3.306122448
B2094655D665A4FB489F,溧水中医院,珍珠路3号,119.032,31.6522,医院,31,0025,37,1.193548387
B2094655D665A4FC4598,无名排档(凤仪街),秣陵镇凤仪街20号,118.84,31.8382,江苏菜,6,0025,29,4.833333333
B2094655D665A4FC459F,鹰皇创业园,,118.834,31.8417,产业园区,8,0025,10,1.25
B2094655D665A4FC4692,橘园餐厅,南高西路,118.813,31.8829,中餐厅,54,0025,71,1.314814814
B2094655D665A4FC4693,东南大学西门,南京市江宁区东南大学路2号,118.812,31.886,高等院校,35,0025,61,1.742857142
B2094655D665A4FC4699,桃园餐厅(焦廷标馆北),两江东路,118.826,31.8892,中餐厅,18,0025,27,1.5
B2094655D665A4FC469A,九龙湖宾馆,江宁区苏源大道77号,118.812,31.8924,江苏菜,158,0025,192,1.215189873
B2094655D665A4FC469B,焦廷标馆,,118.826,31.8882,运动场所,374,0025,691,1.847593582
B2094655D665A4FC469E,田家炳楼,,118.823,31.8829,楼宇,16,0025,31,1.9375
B2094655D665A4FC469F,东南大学计算机楼,,118.819,31.8835,高等院校,48,0025,104,2.166666666
B2094655D665A4FC4792,东南大学文科楼,南京东南大学九龙湖校区,118.816,31.8888,高等院校,29,0025,39,1.344827586
B2094655D665A4FC4793,东南大学法学院,,118.816,31.8892,高等院校,16,0025,17,1.0625
B2094655D665A4FC4798,东南大学机电综合工程训练中心,,118.815,31.8842,高等院校,6,0025,8,1.333333333
B2094655D665A4FC4799,东南大学机电综合工程训练中心机电动力实践分中心,,118.815,31.8842,高等院校,2,0025,3,1.5
B2094655D665A4FC479B,东南大学工培中心,,118.815,31.8862,培训机构,6,0025,6,1
B2094655D665A4FC479C,东南大学化学化工楼,,118.82,31.8897,高等院校,18,0025,33,1.833333333
B2094655D665A4FC479D,东南大学材料楼,,118.82,31.8902,高等院校,13,0025,34,2.615384615
B2094655D665A4FC479E,纪忠楼,,118.815,31.8866,楼宇,170,0025,414,2.435294117
B2094655D665A4FC479F,东南大学化学化工学院,,118.82,31.8897,高等院校,4,0025,5,1.25
B2094655D665A4FC4898,南京师范大学附属中学江宁分校东北门,,118.822,31.8996,中学,82,0025,161,1.963414634
B2094655D665A4FC4899,东南大学橘园4舍-7舍,,118.813,31.8836,住宅区,6,0025,26,4.333333333
B2094655D665A4FC489A,东南大学土木交通实验楼,,118.821,31.8909,高等院校,9,0025,11,1.222222222
B2094655D665A4FC489C,东南大学桃园3舍-4舍,,118.828,31.8903,住宅区,148,0025,713,4.817567567
B2094655D665A4FC489D,东南大学桃园5舍-6舍,,118.828,31.8916,住宅区,147,0025,958,6.517006802
B2094655D665A4FC489F,东南大学桃园1舍-2舍,,118.828,31.8891,住宅区,324,0025,2050,6.327160493
B2094655D665A4FC4999,东南大学梅园5舍-8舍,,118.828,31.8826,住宅区,425,0025,2198,5.171764705
B2094655D665A4FC499D,春盛渔府,江宁区佛城东路66号(近河海大学江宁校区),118.797,31.9137,海鲜酒楼,77,0025,122,1.584415584
B2094655D665A4FC499F,长安福特马自达汽车,苏源大道66,118.81,31.8977,汽车销售,207,0025,441,2.130434782
B2094655D665A4FE4093,新竹园宾馆,江宁区双龙大道九竹路8号,118.834,31.9029,公园户外,4,0025,5,1.25
B2094655D665A4FE4099,秣陵街道下墟社区文体活动中心,,118.838,31.9063,生活娱乐,3,0025,3,1
B2094655D665A4FE4199,江宁区交通运政稽查大队,九竹路,118.832,31.9032,公园户外,7,0025,16,2.285714285
B2094655D665A4FE419E,江宁区运输管理所开发区分所,九竹路,118.832,31.9032,公园户外,3,0025,3,1
B2094655D665A4FE4598,南京朝晨实业有限公司,清水亭西路214号,118.801,31.9071,公司,3,0025,11,3.666666666
B2094655D665A4FE459C,江苏九州通医药有限公司,,118.833,31.8979,公司,25,0025,116,4.64
B2094655D665A4FE469B,百家湖社区卫生服务中心,,118.839,31.9083,医院,12,0025,18,1.5
B2094655D665A4FE4898,华瑞国际集团,,118.803,31.9026,公司,61,0025,167,2.737704918
B2094655D665A4FE489E,华瑞工业园(诚信大道),诚信大道88,118.773,31.8975,产业园区,48,0025,70,1.458333333
B2094655D665A4FF4192,中电电气·南京科技园,南京市江宁区水阁路6号,118.771,31.9038,产业园区,115,0025,208,1.808695652
B2094655D665A4FF419C,南京卫岗乳品研究发展中心,,118.793,31.899,科研机构,4,0025,6,1.5
B2094655D665A4FF419D,中国一航金城南京机电液压工程研究中心,水阁路33,118.779,31.8951,科研机构,54,0025,148,2.74074074
B2094655D665A4FF419E,南京瑞年百思特制药有限公司,将军大道169,118.794,31.8907,公司,12,0025,21,1.75
B2094655D665A4FF4299,月光宝盒KTV,江宁区佛城西路号(河海大学旁),118.782,31.9103,KTV,30,0025,30,1
B2094655D665A4FF429A,大全集团,,118.775,31.8924,公司,38,0025,54,1.421052631
B2094655D665A4FF4398,河海大学理学院,,118.785,31.913,高等院校,14,0025,25,1.785714285
B2094655D665A4FF4399,河海大学计算机及信息工程学院,,118.785,31.913,高等院校,15,0025,17,1.133333333
B2094655D665A4FF439B,河海大学节水园区设施农业与环境试验场,,118.782,31.9138,科研机构,8,0025,9,1.125
B2094655D665A4FF439D,河海大学学生工作处、人武部招生及就业指导办公室,,118.785,31.913,高等院校,3,0025,3,1
B2094655D665A4FF439E,河海大学电气工程学院,,118.785,31.9131,高等院校,27,0025,92,3.407407407
B2094655D665A4FF439F,河海大学教务处,,118.785,31.913,高等院校,3,0025,7,2.333333333
B2094655D665A4FF4499,方山定林寺,南京市江宁区科学园方山定林寺,118.873,31.903,寺庙道观,329,0025,374,1.136778115
B2094655D665A4FF449D,英华达(南京)科技有限公司,江宁开发区将军大道133号,118.791,31.9036,公司,125,0025,243,1.944
B2094655D665A4FF4693,江宁体育中心北门,,118.897,31.9144,综合体育馆,11,0025,41,3.727272727
B2094655D665A4FF4699,南京交通职业技术学院(龙眠大道),,118.906,31.9118,高等院校,1510,0025,4427,2.931788079
B2094655D665A4FF4793,江宁体育场西入口,,118.894,31.9124,综合体育馆,1,0025,1,1
B2094655D665A4FF479F,江宁体育场入口1,,118.895,31.9123,综合体育馆,5,0025,6,1.2
B2094655D665A4FF4898,江宁体育中心,江宁区格致路1号江宁大学城内(近南京工程学院),118.896,31.9091,综合体育馆,601,0025,919,1.529118136
B2094655D665A4FF4992,湖熟影剧院,灵汉西街,118.982,31.8611,电影院,9,0025,9,1
B2094655D665A5F4409B,南京中科药业有限公司,中科路8,118.847,31.9016,公司,7,0025,9,1.285714285
B2094655D665A5F4409D,殷巷新寓西门,殷华街367,118.833,31.907,住宅区,7,0025,8,1.142857142
B2094655D665A5F44492,马家头教堂,,118.847,31.913,教堂,36,0025,56,1.555555555
B2094655D665A5F44493,南京出口加工区(南区),南京江宁苏源大道68号,118.81,31.8862,产业园区,128,0025,283,2.2109375
B2094655D665A5F44593,MOTOROLA(将军大道),,118.791,31.9051,公司,35,0025,49,1.4
B2094655D665A5F4459E,清水亭中学,,118.822,31.9077,中学,6,0025,6,1
B2094655D665A5F4459F,清水亭小学,,118.833,31.9058,小学,23,0025,45,1.956521739
B2094655D665A5F4469A,天印山风景区,,118.859,31.893,公园户外,7,0025,7,1
B2094655D665A5F4469B,方山风景区,,118.865,31.9014,公园户外,311,0025,338,1.08681672
B2094655D665A5F54692,苏果超市(凤仪街),,118.839,31.8353,便民商店/便利店,11,0025,11,1
B2094655D665A5F84198,海岳寺,,118.743,31.8896,寺庙道观,2,0025,2,1
B2094655D665A5F84392,南京卫岗乳品工业园,将军大道139,118.792,31.8989,产业园区,41,0025,71,1.731707317
B2094655D665A5F8439C,鸿国工业园,将军大道209,118.798,31.8818,产业园区,22,0025,31,1.409090909
B2094655D665A5F8439D,航天晨光股份有限公司(将军大道),,118.794,31.8885,公司,25,0025,43,1.72
B2094655D665A5F8449A,埃斯顿自动化,,118.792,31.9143,公司,6,0025,10,1.666666666
B2094655D665A5F8449C,清水西苑,华宝宿舍,118.813,31.8771,住宅区,169,0025,426,2.520710059
B2094655D665A5F8459D,CANSTAR,,118.804,31.9118,公司,10,0025,10,1
B2094655D665A5F84699,统宝光电(南京)有限公司,,118.777,31.9095,公司,65,0025,221,3.4
B2094655D665A5F8469A,江南·青年城楚襄园,江宁区将军南路佛城西路交界处,118.782,31.9089,住宅区,46,0025,212,4.608695652
B2094655D665A5F8469F,江南骏园,佛城西路9,118.788,31.9111,住宅区,567,0025,2544,4.486772486
B2094655D665A5F84798,复地·朗香别墅,江宁经济开发区佛城西路88号,118.772,31.9099,住宅区,121,0025,314,2.595041322
B2094655D665A5F8479E,中国航天晨光集团高新科技园,,118.769,31.8855,产业园区,41,0025,86,2.097560975
B2094655D665A5F9409E,苏果超市(东屏街),,118.774,31.8697,便民商店/便利店,4,0025,19,4.75
B2094655D665A5F94199,林芳酒店,东善桥东屏街,118.774,31.87,江苏菜,3,0025,3,1
B2094655D665A5F9419B,业海食府,,118.774,31.87,中餐厅,2,0025,2,1
B2094655D665A5F9419C,东善桥邮政储蓄,东善桥镇东虹路87号,118.775,31.87,银行,5,0025,5,1
B2094655D665A5F94493,来喜酒店,,118.773,31.8672,旅馆招待所,6,0025,6,1
B2094655D665A5F94499,东善桥影剧院,,118.774,31.8687,电影院,13,0025,17,1.307692307
B2094655D665A5F9479F,黎明饭店,,118.773,31.8675,中餐厅,3,0025,3,1
B2094655D665A5F94992,宴春酒家,江宁区方山天印路(近大学城),118.87,31.912,江苏菜,5,0025,5,1
B2094655D665A5FA439B,秣陵关公园,,118.836,31.8386,公园,18,0025,27,1.5
B2094655D665A5FA439F,南京明月科技产业园,爱陵路8,118.836,31.8517,产业园区,4,0025,5,1.25
B2094655D665A5FA469F,仁忠酒楼,,118.837,31.8403,综合酒楼,4,0025,4,1
B2094655D665A5FA479B,古镇公园美食休闲中心,,118.837,31.8376,中餐厅,8,0025,13,1.625
B2094655D665A5FA4898,小媳妇烧鸡公,,118.839,31.8359,中餐厅,3,0025,5,1.666666666
B2094655D665A5FA499A,名流大酒店,,118.837,31.8368,旅馆招待所,12,0025,12,1
B2094655D665A5FB4698,殷巷新寓,铺岗街269,118.837,31.9116,住宅区,159,0025,431,2.710691823
B2094655D665A5FB479B,殷巷新寓东门,,118.84,31.9066,住宅区,9,0025,13,1.444444444
B2094655D665A5FB479D,金佰利(南京)个人卫生用品有限公司,江宁区吉印大道3199,118.843,31.8958,公司,8,0025,22,2.75
B2094655D665A5FB479E,海尔曼斯集团,,118.833,31.894,公司,19,0025,34,1.789473684
B2094655D665A5FB489A,恒宝利(南京)国际品牌供应链管理中心(吉印大道),吉印大道2199,118.832,31.895,公司,5,0025,6,1.2
B2094655D665A5FB489B,南京师范大学附属中学江宁分校,吉印大道1999,118.82,31.8943,中学,257,0025,450,1.750972762
B2094655D665A5FB4999,江宁区汽车综合性能检测站,,118.833,31.9042,公园户外,9,0025,9,1
B2094655D665A5FC409F,梅山炼钢厂,,118.616,31.897,公司,63,0025,362,5.746031746
B2094655D665A5FC4193,上海梅山医院,205国道宝钢梅山,118.628,31.8973,医院,176,0025,319,1.8125
B2094655D665A5FC429F,盛江花苑,江宁滨江开发区盛江花苑小区,118.605,31.8532,住宅区,250,0025,597,2.388
B2094655D665A5FC4398,南京市孙家中学,,118.622,31.8907,中学,13,0025,31,2.384615384
B2094655D665A5FC459F,梅府花园小区,建邺区水西门大街与北圩路交界处小庄学院与南京审计学院旁,118.61,31.8714,住宅区,7,0025,19,2.714285714
B2094655D665A5FC489A,江春商场,,118.608,31.8666,商场,1,0025,1,1
B2094655D665A5FD479C,六朝春酒楼,,118.629,31.8969,综合酒楼,3,0025,3,1
B2094655D665A5FE409A,南京宁梅百货商场,,118.629,31.9013,商场,9,0025,11,1.222222222
B2094655D665A5FE4592,谷里中学,江宁区谷里镇金谷北街88号,118.688,31.8662,中学,16,0025,24,1.5
B2094655D665A5FE4593,金牛商场,,118.689,31.8638,商场,9,0025,9,1
B2094655D665A5FE4599,江宁滨江开发区CNG站,,118.594,31.8487,产业园区,8,0025,8,1
B2094655D665A5FE459B,江宁镇教堂,,118.605,31.8608,教堂,40,0025,48,1.2
B2094655D665A5FE459C,南京东站江宁镇站,江宁镇205国道边,118.611,31.8607,火车站,19,0025,21,1.105263157
B2094655D665A5FE459D,牛首山风景区,,118.746,31.9074,国家级景点,258,0025,288,1.116279069
B2094655D665A5FE479E,梅山商场,,118.63,31.9014,商场,8,0025,8,1
B2094655D665A5FE4899,新华书店南京梅山店,,118.631,31.9016,书店,4,0025,6,1.5
B2094655D665A5FF409C,晶之鼎大酒店,庆缘东街,118.694,31.8666,江苏菜,5,0025,5,1
B2094655D665A5FF409D,金牛花苑,南京市谷里派出所旁,118.694,31.8665,住宅区,14,0025,29,2.071428571
B2094655D665A5FF419E,新民花苑,南京市江宁区谷里街道,118.704,31.8656,住宅区,105,0025,530,5.047619047
B2094655D665A5FF419F,谷里邻里中心,,118.702,31.866,生活娱乐,13,0025,17,1.307692307
B2094655D665A5FF4392,梅山培训中心,,118.643,31.902,培训机构,9,0025,15,1.666666666
B2094655D665A5FF4393,梅清苑,梅山上怡二村,118.643,31.9028,住宅区,80,0025,483,6.0375
B2094655D665A5FF4398,绿洲新村,雨花台区板桥绿洲机器厂住宅小区,118.647,31.9011,住宅区,10,0025,23,2.3
B2094655D665A5FF4693,宏觉寺(南门),,118.745,31.8852,寺庙道观大门,12,0025,12,1
B2094655D665A5FF4699,郑和墓,南京市江宁区谷里乡周昉村牛首山南麓,118.731,31.906,公园户外,17,0025,17,1
B2094655D665A5FF4793,郑和墓售票处,牛首山,118.733,31.9082,公园景点售票处,2,0025,2,1
B2094655D665A5FF4893,谷里镇周村社区卫生服务室,,118.72,31.9067,医院,5,0025,5,1
B2094655D665A5FF4992,牛首山弘觉寺塔,南京市江宁区牛首山东峰南坡‎,118.743,31.9116,公园户外,52,0025,64,1.23076923
B2094655D665A5FF499E,春牛首饭庄,,118.721,31.9093,中餐厅,16,0025,18,1.125
B2094655D665A6F4439F,淳化中学,,118.941,31.9353,中学,19,0025,36,1.894736842
B2094655D665A6F44698,天景山公寓花锦苑,,118.881,31.9457,住宅区,67,0025,167,2.492537313
B2094655D665A6F4469B,南京农副产品物流配送中心有限公司,,118.884,31.9887,生活娱乐,61,0025,117,1.918032786
B2094655D665A6F44992,逸夫教学楼,,118.891,31.9375,高等院校,38,0025,43,1.131578947
B2094655D665A6F54093,江苏经贸职业技术学院南门,,118.883,31.9303,高等院校,16,0025,20,1.25
B2094655D665A6F54098,南京医科大学心理健康教育与研究中心应用心理学教研室,,118.89,31.9424,高等院校,7,0025,7,1
B2094655D665A6F54099,南医大康达总公司03幢学生公寓管理站,,118.89,31.9415,生活娱乐,25,0025,78,3.12
B2094655D665A6F5409B,第三餐厅(天元东路),十一号路,118.891,31.9413,中餐厅,5,0025,6,1.2
B2094655D665A6F5409C,南京工程学院4号学生公寓,,118.888,31.9218,住宅区,35,0025,88,2.514285714
B2094655D665A6F5409D,07号楼男生公寓,,118.888,31.9229,住宅区,11,0025,28,2.545454545
B2094655D665A6F5409E,行政办公楼,,118.89,31.9434,楼宇,12,0025,17,1.416666666
B2094655D665A6F54192,06号楼男生公寓,,118.882,31.9279,住宅区,67,0025,260,3.880597014
B2094655D665A6F54193,07号楼女生公寓,,118.882,31.9285,住宅区,555,0025,2387,4.3009009
B2094655D665A6F5419C,自选餐厅(南京工程学院北),善鉴路9号,118.876,31.9269,江苏菜,14,0025,22,1.571428571
B2094655D665A6F5419D,05号楼男生公寓,,118.882,31.9278,住宅区,53,0025,243,4.58490566
B2094655D665A6F5419F,南京工程学院后勤集团饮食一公司文园餐厅,日晖路,118.882,31.9266,快餐厅,14,0025,17,1.214285714
B2094655D665A6F5429A,08号楼男生公寓,,118.882,31.9292,住宅区,214,0025,1187,5.546728971
B2094655D665A6F5429D,南京市淳化山田牛奶园景区,南京市江宁区淳化104国道至湖熟公路边,118.939,31.9146,公园户外,59,0025,88,1.491525423
B2094655D665A6F5429E,10号楼女生公寓,,118.887,31.9247,住宅区,77,0025,322,4.181818181
B2094655D665A6F54393,汤山街道上峰社区服务中心,,119.058,31.9947,生活娱乐,21,0025,23,1.095238095
B2094655D665A6F54492,汇印科技园,盛安大道727,118.584,31.8333,产业园区,5,0025,6,1.2
B2094655D665A6F5449B,方旗庙失考墓石刻,,118.6,31.8481,寺庙道观,17,0025,19,1.117647058
B2094655D665A6F5499D,上海梅山钢铁股份有限公司炼铁厂,,118.621,31.9009,公司,10,0025,23,2.3
B2094655D665A6F84099,芙阁新村,东新北路99,118.85,31.9589,住宅区,3,0025,11,3.666666666
B2094655D665A6F8429C,北苑阁新村(芙阁路),芙阁路11,118.843,31.958,住宅区,8,0025,8,1
B2094655D665A6F84493,南京市秦淮高级中学,,118.846,31.9567,中学,44,0025,88,2
B2094655D665A6F8449C,蒙地卡罗,江宁区上元大街647号,118.851,31.9561,KTV,12,0025,18,1.5
B2094655D665A6F8449F,顺达佳苑,上元大街619,118.85,31.9559,住宅区,48,0025,133,2.770833333
B2094655D665A6F8489C,南京工程学院1号门,江宁区方山共和彭村,118.885,31.9168,高等院校,14,0025,15,1.071428571
B2094655D665A6F94193,南京工程学院4号门,日辉路,118.886,31.9274,高等院校,144,0025,257,1.784722222
B2094655D665A6F9419B,樱花园,南京市江宁区丽泽路,118.887,31.9294,住宅区,278,0025,934,3.35971223
B2094655D665A6F9419D,江苏经贸职业技术学院图书馆,江苏省南京市江宁区国槐路,118.883,31.9337,图书馆,405,0025,1068,2.637037037
B2094655D665A6F9419E,丹桂园,江苏经贸职业技术学院,118.887,31.9303,住宅区,48,0025,116,2.416666666
B2094655D665A6F9419F,江苏经贸职业技术学院现代教育技术中心,,118.886,31.9312,高等院校,9,0025,10,1.111111111
B2094655D665A6F9429B,南京工程学院学生会,,118.887,31.9225,高等院校,7,0025,7,1
B2094655D665A6F9429E,南京工程学院校园超市,,118.887,31.9225,超级市场,17,0025,19,1.117647058
B2094655D665A6F9449A,青龙山庄,,118.929,31.9702,住宅区,409,0025,527,1.288508557
B2094655D665A6F9449B,江苏省足球运动协会,方山,118.946,31.986,公园户外,32,0025,41,1.28125
B2094655D665A6F9459B,南汽跃进3号门,天元东路1068,118.897,31.9436,公司,4,0025,4,1
B2094655D665A6F94698,中国移动通讯(万安东路),,118.887,31.9586,家电电子卖场,3,0025,3,1
B2094655D665A6F9489C,上访派出所大里社区警务室,,118.881,31.9859,生活娱乐,10,0025,11,1.1
B2094655D665A6FA4292,南京建纺实业有限公司,万安东路88号,118.897,31.9533,公司,4,0025,4,1
B2094655D665A6FA469B,康馨公寓,江宁上坊街道校前路,118.882,31.9568,住宅区,9,0025,17,1.888888888
B2094655D665A6FA4898,金陵味美熟食店(陈陵路),,118.886,31.9618,餐饮美食,2,0025,4,2
B2094655D665A6FA4993,天云小区(万安东路),万安东路,118.882,31.9594,住宅区,13,0025,47,3.615384615
B2094655D665A6FB409A,新塘小区,江宁区上坊街道新塘小区,118.883,31.9627,住宅区,8,0025,44,5.5
B2094655D665A6FB409C,苏果便民店(青龙社区西),,118.994,31.9428,便民商店/便利店,3,0025,3,1
B2094655D665A6FB439A,南京市青龙山精神病院,淳化镇,118.979,31.9649,医院,63,0025,74,1.174603174
B2094655D665A6FB439E,南京天勋驾驶员培训学校,南京江宁淳化索墅窑厂索墅社区,118.994,31.9306,驾校,329,0025,560,1.702127659
B2094655D665A6FB4699,寇子餐馆,庄中路,118.942,31.9507,江苏菜,2,0025,2,1
B2094655D665A6FB469A,兰州正宗牛肉拉面(江宁县...,淳关路60号,118.934,31.9377,清真餐馆,2,0025,2,1
B2094655D665A6FB4999,百货商场,,118.934,31.9359,商场,14,0025,14,1
B2094655D665A6FC4093,江苏天泓凯帝凯迪拉克,大明路179号,118.806,31.993,汽车销售,19,0025,38,2
B2094655D665A6FC4199,红花人民法庭,,118.808,31.9942,楼宇机构,2,0025,6,3
B2094655D665A6FC469B,日光广场名店城,江宁区东新南路249号,118.853,31.9526,商场,24,0025,38,1.583333333
B2094655D665A6FC469F,瓯江购物中心,温州商业街,118.852,31.9552,商场,10,0025,79,7.9
B2094655D665A6FC4792,广都苑,江宁区东山街道上元大街708号,118.853,31.9555,住宅区,19,0025,182,9.578947368
B2094655D665A6FC4993,南京市上元小学,上元路190,118.855,31.952,小学,23,0025,32,1.391304347
B2094655D665A6FD4292,东城家园,上元大街863,118.857,31.9583,住宅区,68,0025,446,6.558823529
B2094655D665A6FD4393,江宁区第二人民医院东城门诊部,上元大街807,118.856,31.9577,医院,8,0025,8,1
B2094655D665A6FD439F,长塘佳苑,长塘巷21号,118.855,31.9591,住宅区,6,0025,9,1.5
B2094655D665A6FD4492,金发公寓,上元大街763,118.854,31.9575,住宅区,11,0025,30,2.727272727
B2094655D665A6FD459C,南京市东山小学,东新北路8,118.852,31.9583,小学,12,0025,13,1.083333333
B2094655D665A6FD459D,玉靖花园(东新北路),东新北路108,118.853,31.9591,住宅区,31,0025,114,3.677419354
B2094655D665A6FD4698,玉靖花园(北门),文靖路500,118.855,31.9599,大门,4,0025,18,4.5
B2094655D665A6FD4792,小保面店,天印大道838号,118.86,31.9548,特色／地方风味餐厅,3,0025,28,9.333333333
B2094655D665A6FD479F,宁泉南苑,天印大道810,118.858,31.9552,住宅区,7,0025,106,15.142857142
B2094655D665A6FD4898,金元宝大酒店,江宁区金箔路58号(近天印大道),118.859,31.9526,旅馆招待所,515,0025,1067,2.07184466
B2094655D665A6FD4899,中国金箔艺术馆,南京市江宁区金箔路58号,118.859,31.9526,博物馆,25,0025,37,1.48
B2094655D665A6FD489A,东城风景,天印大道840,118.859,31.9542,住宅区,36,0025,153,4.25
B2094655D665A6FE4599,康润园,小行路30,118.756,31.9902,住宅区,59,0025,327,5.542372881
B2094655D665A6FE459B,公安部犬病研究中心,,118.757,31.9905,科研机构,11,0025,13,1.181818181
B2094655D665A6FF479E,新光花园,东沟巷20号,118.845,31.9554,住宅区,11,0025,26,2.363636363
B2094655D665A7F4409B,真来斯肚煲鸡馆,近郊雨花台区卡子门郁金香路7号(近花神大道),118.797,31.9891,江苏菜,186,0025,204,1.096774193
B2094655D665A7F4409E,江苏华通别克,卡子门大街58号,118.799,31.9865,汽车销售,17,0025,24,1.411764705
B2094655D665A7F4419D,南京中升丰田汽车销售有限公司,近郊雨花台区宁南大道10号,118.798,31.9833,汽车销售,12,0025,16,1.333333333
B2094655D665A7F4419E,郁金香花苑,江苏省南京市宁南大道3号,118.796,31.9848,住宅区,61,0025,248,4.06557377
B2094655D665A7F4439A,家乐家,,118.802,31.9814,家具建材市场,30,0025,127,4.233333333
B2094655D665A7F4449B,江苏省医疗器械检验所,,118.797,31.9925,公园户外,4,0025,5,1.25
B2094655D665A7F4449D,东风日产华星专营店,秦淮区大明路274号,118.804,31.9916,汽车维修,20,0025,26,1.3
B2094655D665A7F4449F,窨子山古文化遗址,秦淮区大明路,118.802,31.9892,公园户外,17,0025,30,1.764705882
B2094655D665A7F44598,丽景华庭,永乐路13,118.804,31.9942,住宅区,67,0025,194,2.895522388
B2094655D665A7F4459A,大明路国际汽车街区,,118.801,31.9858,特色商业街,101,0025,135,1.336633663
B2094655D665A7F4459F,女人当家,秦淮区永乐路13号(近洪家园),118.804,31.9954,江苏菜,20,0025,40,2
B2094655D665A7F4469F,龙翔雅苑,江苏省南京市秦淮区永乐南路108号,118.798,31.9974,住宅区,70,0025,426,6.085714285
B2094655D665A7F44793,小王烧烤,永乐北路12号,118.802,31.998,特色／地方风味餐厅,0,0025,0,0
B2094655D665A7F44899,徐州侉子家常菜馆(阳光里...,永乐北路8号,118.802,31.9981,江苏菜,6,0025,6,1
B2094655D665A7F4489F,阳光里物业小区,永乐北路43,118.803,31.9976,住宅区,8,0025,53,6.625
B2094655D665A7F4499D,徐家鸭子店分店,秦淮区永乐路5号(洪家园),118.803,31.9969,熟食,3,0025,4,1.333333333
B2094655D665A7F54092,阳光里小区,洪家园阳光里,118.803,31.997,住宅区,15,0025,51,3.4
B2094655D665A7F5439A,风光里小区,大明路238,118.805,31.9974,住宅区,35,0025,143,4.085714285
B2094655D665A7F54499,汇景家园汇幸苑,,118.812,31.9828,住宅区,11,0025,18,1.636363636
B2094655D665A7F5449E,汇福苑,,118.811,31.9835,住宅区,3,0025,5,1.666666666
B2094655D665A7F5489E,大明路天诚二手车交易市场,宁潥路1号,118.802,31.9856,二手车交易,26,0025,83,3.192307692
B2094655D665A7F9419F,绿野大厦,河西区土城医院西侧,118.847,31.9537,楼宇,29,0025,68,2.344827586
B2094655D665A7F94399,江苏省口腔医院&南京医科大学附属口腔医院第二门诊部,江宁区新医路12号(近上元大街),118.848,31.9539,医院,9,0025,10,1.111111111
B2094655D665A7F9449E,山水大厦,新医路15号,118.849,31.9533,楼宇,4,0025,6,1.5
B2094655D665A7F9499C,东新大酒店,江宁区东新南路288号(近金箔路),118.854,31.9507,江苏菜,27,0025,31,1.148148148
B2094655D665A7FB4493,迎客隆商城,卡子门大街2,118.796,31.9912,商场,0,0025,0,0
B2094655D665A7FB4593,南京宁星汽车维修服务有限公司,宁南大道28号,118.793,31.9801,汽车维修,65,0025,1062,16.338461538
B2094655D665A7FB4599,江苏省新闻出版学校,养回红村152,118.792,31.9932,校园生活,96,0025,326,3.395833333
B2094655D665A7FB459E,江苏广播电视学校,雨花台区养回红村156,118.791,31.9928,高校中心点,375,0025,1294,3.450666666
B2094655D665A7FB4792,君子兰花园,郁金香路22,118.793,31.9851,住宅区,26,0025,65,2.5
B2094655D665A7FB4898,水西门老卤面,郁金香路20,118.793,31.9868,中餐厅,2,0025,2,1
B2094655D665A7FD4992,上元商场羽绒城,上元大街689,118.853,31.9566,商场,7,0025,7,1
B2094655D665A7FE4099,江宁物资商场,,118.854,31.9571,商场,12,0025,12,1
B2094655D665A7FF409D,龙泉寺,南京市雨花台区铁心桥街道后庄,118.766,31.9235,寺庙道观,21,0025,23,1.095238095
B2094655D665AAF8449F,苏果便民商店,,118.977,31.2792,便民商店/便利店,4,0025,4,1
B2094655D665AAF8459C,华联超市(下坝医院便民门诊部东),,119.116,31.3071,便民商店/便利店,3,0025,3,1
B2094655D665AAF84698,苏果超市(下坝医院便民门诊部东),,119.115,31.3066,便民商店/便利店,6,0025,8,1.333333333
B2094655D665AAF84992,竹镇市抗日民主政府旧址,南京市六合区市府街,118.672,32.5326,公园户外,55,0025,66,1.2
B2094655D665AAF8499B,高淳县东坝中学,,119.064,31.2908,中学,44,0025,57,1.295454545
B2094655D665AAF8499D,下坝文化中心,,119.116,31.3072,生活娱乐,20,0025,30,1.5
B2094655D665AAF94198,大众超市(竹镇镇),,118.682,32.4981,便民商店/便利店,5,0025,5,1
B2094655D665AAF94298,基督教堂,,118.808,32.535,教堂,27,0025,47,1.74074074
B2094655D665AAF9439C,苏果便民店六合·冶山店,,118.958,32.5181,便民商店/便利店,4,0025,6,1.5
B2094655D665AAF9449D,苏果便利店(六合竹程中学东),,118.753,32.4367,便民商店/便利店,3,0025,3,1
B2094655D665AAF9459C,(六合服务区)餐厅,,118.737,32.4779,中餐厅,13,0025,14,1.076923076
B2094655D665AAF94798,苏果便民店六合·马鞍·练山店,,118.784,32.4429,便民商店/便利店,11,0025,29,2.636363636
B2094655D665AAF94899,南京平山省级森林公园,南京市六合区马鞍镇平山林场,118.814,32.4461,省级景点,188,0025,324,1.723404255
B2094655D665AAF9489D,苏果便民店六合石柱林店,,118.937,32.4729,便民商店/便利店,6,0025,8,1.333333333
B2094655D665AAF9489E,江苏平山交通设施有限公司,,118.817,32.446,公司,4,0025,6,1.5
B2094655D665AAF9489F,金牛山风景区,,118.971,32.4693,公园户外,21,0025,23,1.095238095
B2094655D665AAF94998,南京石柱林,,118.936,32.4619,公园户外,52,0025,66,1.269230769
B2094655D665AAF9499C,苏果便民店(孙王葛),,118.98,32.447,便民商店/便利店,3,0025,3,1
B2094655D665AAFA409A,六合县仕金学校,,118.985,32.4261,中学,21,0025,25,1.19047619
B2094655D665AAFA409D,金牛湖,南京市六合区津南路103号,118.959,32.4672,公园户外,44,0025,47,1.068181818
B2094655D665AAFA419B,豪威银牛度假酒店,近郊六合区六合金牛湖,118.967,32.4689,江苏菜,30,0025,63,2.1
B2094655D665AAFA419E,商周文化遗址,,118.706,32.3815,公园户外,52,0025,68,1.307692307
B2094655D665AAFA4298,六合文庙,,118.834,32.3448,寺庙道观,8,0025,11,1.375
B2094655D665AAFA4299,六合区中医院,六合区雄州镇长江路179号,118.834,32.3446,医院,27,0025,39,1.444444444
B2094655D665AAFA429C,北苑小区,,118.828,32.3485,住宅区,24,0025,86,3.583333333
B2094655D665AAFA429D,河滨花园,南京巿六合区河滨大道,118.838,32.3414,住宅区,23,0025,81,3.52173913
B2094655D665AAFA429E,雄州广场,,118.837,32.3347,城市广场,20,0025,33,1.65
B2094655D665AAFA429F,六合区供电局,,118.853,32.359,其他,2,0025,3,1.5
B2094655D665AAFA439C,中国农业银行南京泰山路分理处,,118.846,32.3413,银行,2,0025,2,1
B2094655D665AAFA4492,南京市六合地方税务局,延安北路20,118.848,32.3522,公园户外,7,0025,13,1.857142857
B2094655D665AAFA469A,南京市六合人民商场,延安路1,118.843,32.3425,商场,21,0025,29,1.38095238
B2094655D665AAFA479B,米巷小区,六合区雄州镇,118.838,32.3432,住宅区,5,0025,10,2
B2094655D665AAFA479C,阳光商场,长江路15,118.841,32.3425,商场,1,0025,291,291
B2094655D665AAFA489D,教育小区,园林西路8巷8,118.845,32.3532,住宅区,5,0025,7,1.4
B2094655D665AAFA499A,南京市六合区体育场,延安路80,118.848,32.3501,综合体育馆,88,0025,223,2.534090909
B2094655D665AAFA499B,灵山工业,,118.875,32.3366,产业园区,1,0025,1,1
B2094655D665AAFB419B,南京广播电视大学六合分校,旭光路37,118.831,32.3328,高等院校,12,0025,13,1.083333333
B2094655D665AAFB429E,兰荷苑,六合区雄州镇沿河路18号,118.833,32.3417,住宅区,44,0025,161,3.659090909
B2094655D665AAFB459B,仁和翠苑,六合区白果南路38号,118.85,32.3394,住宅区,12,0025,24,2
B2094655D665AAFB469E,东泰雅园,公园路16号,118.849,32.3421,住宅区,22,0025,83,3.772727272
B2094655D665AAFC409A,南京温州商贸城,宝塔路128号,118.877,31.3235,商场,29,0025,47,1.620689655
B2094655D665AAFC4598,华天购物广场,宝塔路39,118.875,31.3234,商场,44,0025,96,2.181818181
B2094655D665AAFC4698,高淳县实验小学,近郊淳溪镇宝塔路13号,118.872,31.3227,小学,7,0025,8,1.142857142
B2094655D665AAFC469D,高淳县城区小学附属幼儿园,宝塔路9,118.871,31.3226,幼儿园,4,0025,4,1
B2094655D665AAFC479D,人民商场,通贤街,118.867,31.3211,商场,10,0025,10,1
B2094655D665AAFD4193,金陵鸭血粉丝汤(栗园路),淳溪镇栗园路28-2号,118.883,31.3241,快餐厅,6,0025,13,2.166666666
B2094655D665AAFE4192,高淳县水产批发市场,,118.863,31.3221,便民商店/便利店,18,0025,25,1.388888888
B2094655D665AAFE4193,红宝丽广场,宝塔路,118.87,31.3225,城市广场,5,0025,8,1.6
B2094655D665AAFE4298,王泉寺,,118.96,31.2635,寺庙道观,37,0025,40,1.081081081
B2094655D665AAFE439A,高淳宾馆会议中心,,118.881,31.3224,公园户外,5,0025,5,1
B2094655D665AAFE4599,高淳县固城小学,,118.973,31.3074,小学,15,0025,29,1.933333333
B2094655D665AAFE469F,高淳县固城中学,,118.976,31.3059,中学,13,0025,13,1
B2094655D665AAFE4799,润发蛋糕面包店,,118.972,31.3042,糕饼店,5,0025,10,2
B2094655D665AAFE489C,广益商场,,118.973,31.3054,商场,6,0025,6,1
B2094655D665AAFE499A,高淳县公安局固城派出所,,118.973,31.3066,警察局,4,0025,5,1.25
B2094655D665AAFF419B,华润苏果(北漪路),北漪路9,118.882,31.3275,超级市场,70,0025,137,1.957142857
B2094655D665AAFF4599,高淳国税,宝塔路103,118.881,31.3246,公园户外,11,0025,36,3.272727272
B2094655D665AAFF479A,高淳县体育场,镇兴路,118.881,31.3287,综合体育馆,5,0025,5,1
B2094655D665ABF4409F,苏果便民店高淳安兴店,,119.104,31.3998,便民商店/便利店,3,0025,3,1
B2094655D665ABF4419F,游子山庄,近郊高淳县环山路6号,119.018,31.3459,度假疗养场所,133,0025,166,1.2481203
B2094655D665ABF4429A,桠溪影视,,119.068,31.3763,电影院,31,0025,34,1.096774193
B2094655D665ABF4429B,瑶池茶座,高淳县301县道,119.068,31.3769,茶艺馆,11,0025,11,1
B2094655D665ABF4429E,泮池园,宝塔路60号,118.872,31.3222,公园户外,61,0025,150,2.459016393
B2094655D665ABF4449A,高淳商贸城,,118.874,31.3227,商场,9,0025,18,2
B2094655D665ABF44699,高淳新兴工业开发区,,118.862,31.3256,产业园区,5,0025,11,2.2
B2094655D665ABF4469B,固城湖花园,固城湖南路51,118.88,31.3152,住宅区,12,0025,16,1.333333333
B2094655D665ABF4469E,苏果便民店(高淳县砖墙中心小学东),,118.833,31.2628,便民商店/便利店,12,0025,15,1.25
B2094655D665ABF44792,高淳县公安局交警大队砖墙中队,,118.833,31.2654,公园户外,18,0025,26,1.444444444
B2094655D665ABF44899,阳江镇狮树医院,,118.79,31.2932,医院,8,0025,8,1
B2094655D665ABF4489F,苏果便民店(阳江镇狮树医院西南),,118.786,31.2917,便民商店/便利店,8,0025,9,1.125
B2094655D665ABF54193,桂凤餐厅,高淳县镇兴路47号,118.87,31.3289,江苏菜,1,0025,1,1
B2094655D665ABF5419B,红太阳广场,镇兴路,118.878,31.3292,城市广场,39,0025,73,1.871794871
B2094655D665ABF5439D,糖酒大厦,淳中路39号,118.867,31.3259,楼宇,2,0025,5,2.5
B2094655D665ABF54599,高淳县人民医院,淳中路9号,118.869,31.3228,医院,251,0025,476,1.896414342
B2094655D665ABF5459E,中国电信淳中路营业厅,,118.87,31.3221,电讯营业厅,5,0025,74,14.8
B2094655D665ABF5469C,松田造型高淳形象店,,118.869,31.3246,美容美发店,4,0025,5,1.25
B2094655D665ABF5479E,小花红烧鹅,康乐路90-16,118.869,31.3311,江苏菜,3,0025,4,1.333333333
B2094655D665ABF5489F,浙祥商务茶馆,镇兴路130-3号,118.873,31.3286,茶艺馆,6,0025,35,5.833333333
B2094655D665ABF8409D,通济街商业广场,,119.028,31.6555,特色商业街,151,0025,282,1.867549668
B2094655D665ABF8449B,红粉佳人KTV,,119.03,31.6531,KTV,18,0025,18,1
B2094655D665ABF84792,无想山庄,无想湖北岸,119.019,31.6009,中餐厅,29,0025,31,1.068965517
B2094655D665ABF8479D,无想山,,119.016,31.6021,公园户外,70,0025,77,1.1
B2094655D665ABF8489D,南京众鑫制刀有限公司,,118.883,31.5632,公司,17,0025,24,1.411764705
B2094655D665ABF94499,梅园农家乐,溧水傅家边农业科技园山凹村,119.033,31.5637,江苏菜,10,0025,10,1
B2094655D665ABF9449D,傅家边集团奇瓜异果园,,119.029,31.5627,公园户外,16,0025,18,1.125
B2094655D665ABF9449F,南京傅家边科技园集团公司果品加工厂,,119.028,31.565,公司,2,0025,3,1.5
B2094655D665ABF94792,苏果便民店(和凤镇张家村村民委员会东),,118.949,31.4233,便民商店/便利店,6,0025,6,1
B2094655D665ABF94992,苏果便民店(淳溪镇派出所临城警务工作站南),,118.859,31.3613,便民商店/便利店,8,0025,10,1.25
B2094655D665ABF94998,兰庭花园,,118.873,31.3319,住宅区,5,0025,62,12.4
B2094655D665ABF9499E,苏果便民店(中共阳江镇小花党支部北),,118.757,31.3446,便民商店/便利店,19,0025,35,1.842105263
B2094655D665ABF9499F,高淳县阳江中心小学,,118.821,31.3313,小学,18,0025,20,1.111111111
B2094655D665ABFA4093,阳江酒家,高淳县高丹线,118.814,31.3317,江苏菜,8,0025,9,1.125
B2094655D665ABFA419A,高淳县沧溪中学,,118.814,31.3318,中学,36,0025,48,1.333333333
B2094655D665ABFA419F,高淳汽车客运站,近郊高淳县宝塔路39号,118.896,31.333,长途汽车站,204,0025,257,1.259803921
B2094655D665ABFA429C,南淳客运农公站,,118.898,31.3337,长途汽车站,3,0025,3,1
B2094655D665ABFA429F,武家嘴新村,北岭路289,118.899,31.3356,住宅区,40,0025,72,1.8
B2094655D665ABFA4493,基督教黄家村堂,,118.924,31.3807,教堂,7,0025,8,1.142857142
B2094655D665ABFA449B,高淳科技创业园,荆山路039,118.944,31.3416,产业园区,105,0025,132,1.257142857
B2094655D665ABFA4799,漆桥中学,,118.995,31.3824,中学,12,0025,12,1
B2094655D665ABFB439B,新华书店(双牌石影剧院北),白下区高淳县漆桥双牌石大街,118.993,31.3905,书店,8,0025,8,1
B2094655D665ABFB449B,双牌石影剧院,双牌石镇,118.993,31.3887,电影院,40,0025,56,1.4
B2094655D665ABFB479F,凤凰园,和凤镇双牌石,118.997,31.3967,住宅区,12,0025,14,1.166666666
B2094655D665ABFB489A,777鱼羊馆,近郊溧水区和凤镇镇东路,118.997,31.3974,中餐厅,2,0025,4,2
B2094655D665ABFB489D,南京兆源电器有限公司,,118.988,31.3966,公司,4,0025,4,1
B2094655D665ABFB4998,瑶池山庄度假村,近郊高淳县瑶池山庄(近国际慢城),119.068,31.3741,度假疗养场所,581,0025,687,1.182444061
B2094655D665ABFB4999,张巡纪念馆,,119.11,31.4126,纪念馆,8,0025,9,1.125
B2094655D665ABFC4198,溧水县少年儿童图书馆,近郊溧水县大东门街81号,119.027,31.6514,图书馆,1,0025,1,1
B2094655D665ABFC439D,溧水县第二初级中学,,119.032,31.6443,中学,7,0025,11,1.571428571
B2094655D665ABFC449B,OY食府,近郊溧水县永阳镇广成东方名城,119.033,31.6397,江苏菜,2,0025,2,1
B2094655D665ABFC4592,庆丰小区安居苑,珍珠南路77,119.032,31.6436,住宅区,67,0025,137,2.044776119
B2094655D665ABFC469C,中共溧水县委党校,庆丰路,119.032,31.6443,校园生活,7,0025,26,3.714285714
B2094655D665ABFD479F,魔剪形象店,,119.028,31.6524,美容美发店,3,0025,3,1
B2094655D665ABFE4399,苏果超市(溧水县交通局东北),,119.029,31.6609,便民商店/便利店,12,0025,17,1.416666666
B2094655D665ABFE4493,南京英才职业技术学校,毓秀路98号,119.006,31.627,职业技术学校,10,0025,26,2.6
B2094655D665ABFE4592,南京勃朗峰新技术有限公司生产基地,,119.046,31.6111,产业园区,0,0025,0,0
B2094655D665ABFE459D,溧水县特殊教育学校试验基地,,119.044,31.6191,培训机构,10,0025,14,1.4
B2094655D665ABFE4692,曼德夫,近郊溧水县通济广场7幢7号,119.029,31.6575,快餐厅,19,0025,31,1.631578947
B2094655D665ABFE4893,暗香(通济广场),通济广场6幢1号,119.028,31.6567,茶艺馆,4,0025,5,1.25
B2094655D665ABFF4793,苏果(通济广场),,119.029,31.657,便民商店/便利店,42,0025,61,1.452380952
B2094655D764A0F44292,"东北炖 文苑路店",文苑路108号大成名店公园B028号近学津路近大成名店公园,118.922,32.1019,东北菜,80,0025,110,1.375
B2094655D764A0F54498,金氏韩国料理,下关区迈皋桥22号103室,118.81,32.1071,韩国料理,38,0025,52,1.368421052
B2094655D764A0F5489F,山水大酒店西餐厅,秦淮区省府路13号山水大酒店1楼,118.806,32.0443,西餐厅,12,0025,15,1.25
B2094655D764A0F8429A,明珠大厦,珍珠南路66号,119.032,31.6419,楼宇,25,0025,63,2.52
B2094655D764A0F8429C,南京中天专修学院,爱陵路16号,118.833,31.8456,高等院校,19,0025,55,2.894736842
B2094655D764A0F84498,浦口区永宁镇车站小学,,118.526,32.1678,小学,16,0025,20,1.25
B2094655D764A0F8449C,星光酒店,,118.451,32.0322,旅馆招待所,7,0025,7,1
B2094655D764A0F8449F,六合区冶山镇初级中学,六合县冶山镇石柱林路48号,118.921,32.51,中学,32,0025,65,2.03125
B2094655D764A0F8459A,六合区实验初级中学,,118.849,32.344,中学,6,0025,9,1.5
B2094655D764A0F8479F,博乐艺术品展览中心,,118.853,32.3451,展览馆,2,0025,7,3.5
B2094655D764A0F94199,物资大厦(溧水县审计局西),,119.026,31.6489,楼宇,4,0025,8,2
B2094655D764A0F9419F,圣地华府,固城湖南路59号,118.881,31.3134,住宅区,4,0025,6,1.5
B2094655D764A0FA4299,千佛斋素菜馆,近郊栖霞区栖霞街84号栖霞寺内(近栖霞街),118.959,32.1419,中式素餐馆,8,0025,9,1.125
B2094655D764A0FC4098,铜山中心小学(江宁区铜山中学西北),,118.865,31.6864,小学,9,0025,10,1.111111111
B2094655D764A0FC4198,凯旋假日大酒店,公园路23号,118.848,32.3436,三星级宾馆,9,0025,11,1.222222222
B2094655D764A0FD419D,六合区马鞍镇城西初级中学,,118.808,32.3546,中学,35,0025,55,1.571428571
B2094655D764A0FD449E,浦口区桥林镇兰花中学,,118.566,31.9746,中学,19,0025,24,1.263157894
B2094655D764A0FD459D,南京新城科技大厦02幢,,118.741,31.9934,楼宇,8,0025,8,1
B2094655D764A0FD489C,栖霞电影院,,118.954,32.148,电影院,8,0025,10,1.25
B2094655D764A0FD4993,中国移动江宁滨江开发区营业厅,滨江开发区飞鹰路,118.588,31.8372,电讯营业厅,12,0025,43,3.583333333
B2094655D764A0FD4999,龙陵,,118.716,31.9246,公园户外,20,0025,25,1.25
B2094655D764A0FE439E,劳动大厦,珠江路5,118.638,32.0634,楼宇,17,0025,66,3.882352941
B2094655D764A0FE489B,南京凯凯机械有限公司,,118.721,31.9208,公司,3,0025,4,1.333333333
B2094655D764A0FF429C,宏力花苑,永阳镇中山东路19号,119.037,31.6484,住宅区,31,0025,162,5.225806451
B2094655D764A0FF479D,石臼湖花苑,,118.887,31.3232,住宅区,8,0025,21,2.625
B2094655D764A0FF489D,南京龙华大酒店,浦口区龙华路2号(南京工业大学浦口校区西侧),118.641,32.0711,公园户外,175,0025,273,1.56
B2094655D764A1F4439D,南京市祖堂山精神病院,寺脚村,118.747,31.8859,医院,48,0025,244,5.083333333
B2094655D764A1F44798,中国移动中山大街合作营业厅,淳溪镇,118.866,31.3253,电讯营业厅,4,0025,4,1
B2094655D764A1F44799,新篁镇初级中学,,118.938,32.3724,中学,26,0025,49,1.884615384
B2094655D764A1F44899,南京市六合区程桥高级中学,六合区程桥镇,118.741,32.3835,中学,81,0025,117,1.444444444
B2094655D764A1F44999,中国货运邮政航空有限责任公司南京营业部,,118.882,31.738,公司,5,0025,5,1
B2094655D764A1F4499D,三韩电子(南京)有限公司,,118.873,32.1518,公司,5,0025,9,1.8
B2094655D764A1F5409E,清修教堂,,118.617,31.8184,教堂,8,0025,8,1
B2094655D764A1F5429F,蓝翔酒家,,119.011,31.4413,中餐厅,4,0025,4,1
B2094655D764A1F5439D,荣峰大酒店,近郊六合区新华东路49号,118.776,32.2413,江苏菜,44,0025,66,1.5
B2094655D764A1F5469D,物资公司集资房,幕府西路132,118.759,32.1013,住宅区,1,0025,1,1
B2094655D764A1F54993,湖熟中学,灵顺北路51,118.982,31.8624,中学,10,0025,10,1
B2094655D764A1F8409F,中共六合区葛塘街道工委党校,,118.747,32.2449,校园生活,2,0025,2,1
B2094655D764A1F8419B,马群基督教堂,,118.909,32.0395,教堂,26,0025,44,1.692307692
B2094655D764A1F8419C,南京中国绿化博览园,南京市建邺区扬子江大道228号,118.706,32.0232,公园,2162,0025,3126,1.445883441
B2094655D764A1F8429C,新建公寓,辅机路178,118.643,31.9006,住宅区,15,0025,57,3.8
B2094655D764A1F8459C,中国移动通信浦口分公司,,118.638,32.0619,公司,13,0025,17,1.307692307
B2094655D764A1F8469E,东北烧烤溧水店,,119.032,31.657,烧烤,6,0025,6,1
B2094655D764A1F84799,中桥中学,,118.817,32.2031,中学,5,0025,5,1
B2094655D764A1F8479B,南京市西善桥中学,,118.722,31.9536,中学,4,0025,4,1
B2094655D764A1F8479D,南京城市职业学院浦口校区,,118.712,32.1086,高等院校,5,0025,11,2.2
B2094655D764A1F84998,双塔医院,双高公路,118.916,31.3369,医院,10,0025,12,1.2
B2094655D764A1F9409C,中国建设银行禄口分理处,,118.863,31.7771,银行,5,0025,5,1
B2094655D764A1F94193,聚福园,秦苑路15,118.847,32.3474,住宅区,13,0025,50,3.846153846
B2094655D764A1F9429C,加洲城(弘景大道),,118.897,31.8959,住宅区,52,0025,82,1.576923076
B2094655D764A1F9449D,高淳县桠溪中学,,119.189,31.3719,中学,21,0025,26,1.238095238
B2094655D764A1F9449F,游子山石龙寺,,119.011,31.3407,寺庙道观,12,0025,15,1.25
B2094655D764A1F9479B,苏宁威尼斯假日酒店,浦珠北路苏宁威尼斯水城内,118.747,32.1368,公园户外,575,0025,866,1.506086956
B2094655D764A1F94892,朗朗喜涮涮火锅,花园街49号,119.081,32.198,火锅店,3,0025,3,1
B2094655D764A1FA4199,友谊大酒店(六合区),新集北路23号,118.72,32.306,江苏菜,6,0025,6,1
B2094655D764A1FA4292,川都大排档,溧水县长寿东路,118.973,31.7259,四川菜,2,0025,2,1
B2094655D764A1FA459B,江苏教育学院,,118.721,32.165,高校中心点,186,0025,1074,5.774193548
B2094655D764A1FA4892,土桥邮政储蓄,,119.063,31.9351,银行,13,0025,23,1.769230769
B2094655D764A1FA4893,好又多购物中心(宁芜公路),,118.719,31.9593,超级市场,13,0025,19,1.461538461
B2094655D764A1FB419A,锦江之星卡子门大街店,近郊卡子门大街72号,118.799,31.9871,经济型连锁酒店,91,0025,124,1.362637362
B2094655D764A1FB4398,江苏省六合经济开发区科技创业园,,118.793,32.3181,产业园区,44,0025,59,1.34090909
B2094655D764A1FB4893,"农家小院 迈皋桥店",近郊栖霞区迈皋桥迈化路长营村28号(近华电路),118.812,32.1061,江苏菜,8,0025,10,1.25
B2094655D764A1FC439C,钟山花园城山水居(西二门),,118.849,32.0327,大门,6,0025,11,1.833333333
B2094655D764A1FC4598,中国近代历史博物馆,长江路292,118.797,32.0431,博物馆,3,0025,3,1
B2094655D764A1FC469B,兴卫花园,,118.843,32.105,住宅区,10,0025,19,1.9
B2094655D764A1FC479B,艾尼蜜雪儿(和燕路),下关区东井村3号,118.798,32.0958,糕饼店,2,0025,6,3
B2094655D764A1FC499F,顺达佳苑(南门),上元大街619,118.85,31.9555,住宅区,2,0025,12,6
B2094655D764A1FD489A,柘塘派出所交山村警务室,,118.938,31.7443,生活娱乐,9,0025,9,1
B2094655D764A1FE439F,南京长安汽车有限公司,,119.014,31.633,公司,25,0025,37,1.48
B2094655D764A1FE4498,中源·阳光城,南京市鼓楼区中央路201号,119.017,31.6733,住宅区,29,0025,40,1.379310344
B2094655D764A1FE469C,南京禄口国际机场航管业务楼,,118.872,31.7364,楼宇,85,0025,241,2.835294117
B2094655D764A1FE469D,长安福特马自达发动机,吉印大道1299,118.793,31.8847,公司,82,0025,174,2.121951219
B2094655D764A1FE4898,南京市浦口医院,南京浦口区浦园路18号,118.719,32.1048,医院,260,0025,586,2.253846153
B2094655D764A1FF4092,高淳体育中心,固城湖南路,118.878,31.3212,综合体育馆,18,0025,19,1.055555555
B2094655D764A1FF409B,夜雨星河KTV,,118.845,32.3474,KTV,36,0025,36,1
B2094655D764A1FF429A,佛灵门,,118.805,32.137,国家级景点,18,0025,20,1.111111111
B2094655D764A1FF429E,南京市溧水县云鹤初级中学,,119.107,31.472,中学,14,0025,14,1
B2094655D764A1FF4399,江宁初级中学,江宁区江宁镇宁桥南路168号,118.609,31.8557,中学,8,0025,8,1
B2094655D764A1FF4793,湾仔牛排,东泰雅园5栋03号,118.849,32.3411,牛扒店,4,0025,4,1
B2094655D764A1FF4898,铁心大厦,,118.762,31.9598,楼宇,25,0025,45,1.8
B2094655D764A1FF489A,南京市第十七中学,,118.716,32.1429,中学,8,0025,8,1
B2094655D764A1FF489D,江苏广播电视学校(北门),养回红村156,118.791,31.9936,高等院校,8,0025,8,1
B2094655D764A1FF499C,碧水苑,尧化门尧佳路,118.881,32.1259,住宅区,44,0025,170,3.863636363
B2094655D764A1FF499F,银河苑,,118.758,31.9535,住宅区,51,0025,124,2.431372549
B2094655D764A2F4469B,万达紫金明珠(西门),,118.858,32.014,大门,16,0025,30,1.875
B2094655D764A2F4479F,万寿商业街,,118.843,32.1224,特色商业街,8,0025,21,2.625
B2094655D764A2F44893,汇景家园汇祥苑,,118.812,31.981,住宅区,4,0025,16,4
B2094655D764A2F4499B,花神美境(西门),,118.791,31.983,住宅区,20,0025,37,1.85
B2094655D764A2F4499F,菊花小区,,118.746,31.9814,住宅区,96,0025,247,2.572916666
B2094655D764A2F54093,兴都花园A区(二号门),兴卫村87号,118.846,32.1051,住宅区,29,0025,48,1.655172413
B2094655D764A2F5419D,Mazzo-V-Club,1912街区6号楼,118.796,32.0452,酒吧,1233,0025,2405,1.950527169
B2094655D764A2F5469F,雍园6-1号小区(北门),雍园6-1,118.804,32.0441,住宅区,7,0025,7,1
B2094655D764A2F8439F,多伦路150号小区(西门),多伦路150号,118.752,32.092,住宅区,2,0025,13,6.5
B2094655D764A2FA4993,幕府山庄(东门),和燕路403,118.82,32.1234,大门,13,0025,32,2.461538461
B2094655D764A2FA4999,东井亭社区,,118.798,32.0984,住宅区,110,0025,728,6.618181818
B2094655D764A2FB439E,晏公庙西村小区,晏公庙西村,118.862,32.0322,住宅区,14,0025,182,13
B2094655D764A2FB449C,银贡山庄D区,南京市华电北路,118.862,32.114,住宅区,38,0025,156,4.105263157
B2094655D764A2FC429D,城市绿洲花园(东门),,118.824,32.1226,大门,181,0025,852,4.70718232
B2094655D764A2FC4493,王医师诊所,迈皋桥街216-1号,118.807,32.1037,诊所,2,0025,2,1
B2094655D764A2FC499C,宏图·上逸园,玄武区柳营村108号(顾家营路与宁杭公路交界),118.877,32.0446,住宅区,34,0025,119,3.5
B2094655D764A2FD419D,摄山中学,,119.008,32.1388,中学,7,0025,11,1.571428571
B2094655D764A2FD4699,君子兰花园(北门),,118.792,31.9864,大门,6,0025,17,2.833333333
B2094655D764A2FE439F,李杨面馆,下关区建宁路293号(近大观天地),118.743,32.0913,特色／地方风味餐厅,7,0025,8,1.142857142
B2094655D764A2FE459F,银贡山庄C区,,118.862,32.1128,住宅区,14,0025,35,2.5
B2094655D764A2FE489A,南京特殊教育职业技术学院图书馆,,118.83,32.1279,图书馆,90,0025,305,3.388888888
B2094655D764A2FF4193,沁苑二村(西北门),进取村153,118.843,32.1246,大门,2,0025,2,1
B2094655D764A2FF429D,方家营70号,,118.755,32.0991,住宅区,12,0025,21,1.75
B2094655D764A2FF429E,东鼎大厦(二号楼),珠江路699号-2,118.807,32.0458,楼宇,28,0025,115,4.107142857
B2094655D764A2FF4592,兰花园,,118.815,32.1373,公园,3,0025,3,1
B2094655D764A2FF459B,南京理工大学电子工程与光电技术学院,江苏省南京玄武区孝陵卫200号南京理工大学,118.857,32.0268,高等院校,84,0025,215,2.559523809
B2094655D764A2FF469A,樱花苑(北门),小卫街229号,118.849,32.0367,住宅区,5,0025,6,1.2
B2094655D764A2FF469D,菊香苑,,118.789,31.9845,住宅区,5,0025,16,3.2
B2094655D764A2FF4899,陶瓷厂宿舍(西门),安怀村366-430,118.796,32.1009,住宅区,0,0025,0,0
B2094655D764A3F4419A,奥东宾馆,近郊栖霞区和燕路467号,118.821,32.1316,公园户外,6,0025,13,2.166666666
B2094655D764A3F4479A,江苏警官学院体育馆,,118.754,31.9951,综合体育馆,19,0025,22,1.157894736
B2094655D764A3F4479D,金发小区,利民新村,118.856,31.9581,住宅区,4,0025,28,7
B2094655D764A3F44898,东城风景(东门),,118.86,31.9547,楼宇大门,10,0025,13,1.3
B2094655D764A3F54293,弘燕名居,和燕路386号,118.814,32.1113,住宅区,8,0025,16,2
B2094655D764A3F8419D,长营村101号小区(南门),,118.815,32.1032,住宅区,1,0025,9,9
B2094655D764A3F8449A,兴都花园A区(一号门),,118.848,32.1066,住宅区,7,0025,13,1.857142857
B2094655D764A3F8489F,南京铁路会议中心,宝塔桥东街1,118.752,32.1085,会展中心,38,0025,69,1.815789473
B2094655D764A3F9419B,碧瑶花园(乐山路),建邺区乐山路189号,118.717,32.0038,住宅区,73,0025,239,3.273972602
B2094655D764A3FA419A,南京市太平村学校,,118.817,32.1321,小学,5,0025,8,1.6
B2094655D764A3FA419B,幕府山庄(南门),,118.818,32.1212,大门,20,0025,103,5.15
B2094655D764A3FA4698,发展大厦,河西区土城医院西侧,118.804,32.0465,楼宇,19,0025,45,2.368421052
B2094655D764A3FA4899,托馥咖啡,和燕路438号城市绿洲商业街24-26,118.821,32.1229,咖啡厅,22,0025,40,1.818181818
B2094655D764A3FA499A,南京卫生学校晓庄校区,和燕路371,118.816,32.1178,学校大门,4,0025,4,1
B2094655D764A3FB4492,钟山学院体育馆,,118.889,32.046,综合体育馆,12,0025,18,1.5
B2094655D764A3FD459C,沁苑二村,进取村153号,118.844,32.1239,住宅区,22,0025,146,6.636363636
B2094655D764A3FD479E,南塑新村(东南门),,118.814,32.1074,大门,1,0025,5,5
B2094655D764A3FE419A,北祖师庵52-60号小区,北祖师庵52-60,118.75,32.0906,住宅区,6,0025,7,1.166666666
B2094655D764A3FE419F,老张腰子店,红山路28号,118.81,32.1026,特色／地方风味餐厅,18,0025,20,1.111111111
B2094655D764A3FE4993,栖凤花园,,118.889,31.3385,住宅区,22,0025,40,1.818181818
B2094655D764A4F4489C,南京宝铁龙轩达汽车销售服务有限公司,秦淮区大明路209号,118.803,31.9881,汽车销售,14,0025,21,1.5
B2094655D764A4F44999,龙翔雅苑(北门),,118.799,31.9979,住宅区,4,0025,9,2.25
B2094655D764A4F4499A,雨花健身中心,紫荆花路20号2层,118.792,31.9909,健身中心,5,0025,5,1
B2094655D764A4F54092,比亚迪汽车南京雨田销售服务店,卡子门外大明路599号宁溧路口,118.801,31.986,汽车维修,5,0025,18,3.6
B2094655D764A4F5409A,汇景家园汇祥苑(东门),,118.813,31.9816,住宅区,9,0025,55,6.111111111
B2094655D764A4F5429C,南京夏普电子有限公司(3),,118.87,32.1458,公司,110,0025,264,2.4
B2094655D764A4F5459D,南京市春江学校(江泉路),近郊江泉路,118.75,31.9614,中学,30,0025,86,2.866666666
B2094655D764A4F5469E,北祖师庵32-40号小区,北祖师庵32-40,118.75,32.0901,住宅区,3,0025,5,1.666666666
B2094655D764A4F54792,江苏安吉汽车销售服务有限公司,江宁区宁溧路262号,118.8,31.9839,汽车维修,38,0025,122,3.210526315
B2094655D764A4F54892,东风本田汽车恒通特约销售服务店,宁南大道32号,118.793,31.9782,汽车销售,9,0025,21,2.333333333
B2094655D764A4F5489C,江苏世贸泰信汽车贸易有限公司,宁南大道12号,118.797,31.9829,汽车维修,15,0025,20,1.333333333
B2094655D764A4F8429D,十字街2号小区,十字街2号,118.807,32.097,住宅区,11,0025,51,4.636363636
B2094655D764A4F8459F,南京山泉产业园,和燕路508,118.823,32.1357,产业园区,10,0025,30,3
B2094655D764A4F84692,翠岛花城(南门),,118.789,31.9788,楼宇大门,20,0025,39,1.95
B2094655D764A4F8469E,化工新村,南京市栖霞区和燕路化工新村,118.82,32.1377,住宅区,8,0025,21,2.625
B2094655D764A4F9439A,国美电器(华电路店),,118.811,32.1054,家电电子卖场,9,0025,31,3.444444444
B2094655D764A4F9439D,合班村,,118.815,32.1079,大门,1,0025,1,1
B2094655D764A4F94592,帝景天成,江宁区将军中路88号,118.781,31.9354,住宅区,127,0025,296,2.330708661
B2094655D764A4F9459F,康苑新村(南门),,118.742,31.9875,住宅区,3,0025,3,1
B2094655D764A4F94999,金陵新九村,燕江路60,118.759,32.1105,住宅区,54,0025,789,14.611111111
B2094655D764A4F9499F,珏佩茶馆,近郊华电路长营村20号,118.813,32.1065,其他,2,0025,2,1
B2094655D764A4FA4398,丽堤汽车旅馆,下关区幕府东路118号(近中央北路),118.801,32.1118,旅馆招待所,32,0025,41,1.28125
B2094655D764A4FA439C,银贡山庄B区,,118.863,32.1129,住宅区,16,0025,28,1.75
B2094655D764A4FA439F,银贡山庄(东门),,118.865,32.1143,住宅区,21,0025,44,2.095238095
B2094655D764A4FA4498,海能餐厅,东井村41号,118.807,32.101,中餐厅,3,0025,4,1.333333333
B2094655D764A4FA4499,东井村41号小区,东井村41号,118.807,32.1007,住宅区,4,0025,7,1.75
B2094655D764A4FA4793,南京中国绿化博览园(东门),,118.713,32.0227,景点大门,24,0025,36,1.5
B2094655D764A4FA479F,南京外国语学校仙林分校,近郊栖霞区仙林大道136号,118.937,32.0993,职业技术学校,347,0025,568,1.636887608
B2094655D764A4FA4899,拉德芳斯梧桐花园(北门),,118.731,31.9996,大门,35,0025,50,1.428571428
B2094655D764A4FA489B,龙凤花园(北门),,118.746,32.0518,大门,12,0025,35,2.916666666
B2094655D764A4FB429C,辰龙广场(东门),江东北路145-147,118.739,32.0455,大门,5,0025,6,1.2
B2094655D764A4FB429D,典雅居(北门),汉中门大街281,118.737,32.0393,住宅区,49,0025,96,1.959183673
B2094655D764A4FB429F,东郊小镇第一街区,,118.958,32.0536,住宅区,77,0025,265,3.441558441
B2094655D764A4FB4393,望江新寓(东门),东宝路5号,118.734,32.0423,住宅区,10,0025,56,5.6
B2094655D764A4FB449B,雅瑰园(北门),湘江路1,118.738,32.0493,大门,12,0025,40,3.333333333
B2094655D764A4FB459B,嘉景苑,东宝路29,118.733,32.0423,住宅区,4,0025,24,6
B2094655D764A4FB479D,南京依维柯汽车有限公司(南京医科大学东北),,118.897,31.9472,公司,30,0025,44,1.466666666
B2094655D764A4FB4898,红星美凯龙全球家具生活广场,近郊雨花台区卡子门大街29号,118.798,31.9895,家具建材市场,497,0025,892,1.794768611
B2094655D764A4FB489C,南京市公安局交通管理局第三大队事故中队,,118.8,31.9963,公园户外,16,0025,24,1.5
B2094655D764A4FB489E,映山菁华嘉园,,118.801,31.9911,住宅区,21,0025,74,3.523809523
B2094655D764A4FB489F,丽景华庭(南门),,118.804,31.9929,大门,7,0025,10,1.428571428
B2094655D764A4FB499A,本田讴歌(acura)南京大明路店,大明路177号,118.806,31.9935,汽车维修,23,0025,54,2.347826086
B2094655D764A4FC409E,南京六合瓜埠山景区,南京市六合区果园(六合国家地质公园内),118.903,32.2511,公园户外,65,0025,86,1.323076923
B2094655D764A4FC4192,辰龙绿苑(东门),,118.733,32.046,住宅区,4,0025,46,11.5
B2094655D764A4FC429E,金舟花园(北门),江东北路330号,118.738,32.0519,住宅区,1,0025,1,1
B2094655D764A4FC4492,高淳县公安局,镇兴路150,118.876,31.3286,警察局,14,0025,35,2.5
B2094655D764A4FC4698,盛世新寓(南门),幕府东路99,118.794,32.114,住宅区,4,0025,5,1.25
B2094655D764A4FD429F,兰花园(南门),,118.815,32.1368,景点大门,4,0025,5,1.25
B2094655D764A4FD4493,东井村41号,迈皋桥东井村41号,118.807,32.1009,住宅区,18,0025,30,1.666666666
B2094655D764A4FD4498,五百村大院,,118.788,32.1117,住宅区,4,0025,22,5.5
B2094655D764A4FD449D,东井村39号小区(和燕路),东井村39号,118.806,32.1004,住宅区,37,0025,173,4.675675675
B2094655D764A4FD499D,合班村5号小区(东门),合班村5号,118.811,32.1097,住宅区,3,0025,14,4.666666666
B2094655D764A4FD499E,林景·瑞园,和燕路319号,118.812,32.1125,住宅区,90,0025,416,4.622222222
B2094655D764A4FE4292,银贡山庄A区,,118.864,32.114,住宅区,24,0025,201,8.375
B2094655D764A4FE429D,银贡山庄A区(西门),,118.863,32.1151,住宅区,14,0025,38,2.714285714
B2094655D764A4FE429E,麦翔科技园,,118.859,32.1054,产业园区,4,0025,4,1
B2094655D764A4FE439A,伊村饭店,玄武区太平门外伊刘村1号,118.844,32.0957,江苏菜,27,0025,40,1.481481481
B2094655D764A4FE4493,南京状元食品有限公司,,118.861,32.108,公司,7,0025,9,1.285714285
B2094655D764A4FE4693,红山光阳园老年公寓,红山村黄家圩212号,118.802,32.0956,住宅区,5,0025,5,1
B2094655D764A4FF4193,胜利三村,,118.822,32.1332,住宅区,7,0025,10,1.428571428
B2094655D764A4FF419A,城市绿洲花园(南江中学东南),,118.827,32.1246,住宅区,17,0025,35,2.058823529
B2094655D764A4FF419E,世纪华联超市门坡店,,118.819,32.1381,超级市场,3,0025,3,1
B2094655D764A4FF419F,田园美居(东门),幕府东路233,118.81,32.1169,住宅区,2,0025,2,1
B2094655D764A4FF469A,兴都花园(四号门),兴卫村89,118.842,32.1041,住宅区,14,0025,23,1.642857142
B2094655D764A4FF469C,南京市北京东路小学阳光分校,,118.866,32.0944,小学,16,0025,66,4.125
B2094655D764A5F4449C,毗卢寺(南门),,118.803,32.0422,寺庙道观大门,15,0025,17,1.133333333
B2094655D764A5F44593,高淳县第三中学,,118.882,31.3315,中学,9,0025,11,1.222222222
B2094655D764A5F44699,华润苏果(龙津路),,118.842,32.3397,超级市场,183,0025,354,1.934426229
B2094655D764A5F44898,方圆绿茵(东门),,118.813,32.1046,住宅区,4,0025,5,1.25
B2094655D764A5F4489A,燕禾园,,118.763,32.1075,住宅区,26,0025,128,4.923076923
B2094655D764A5F4499C,中海·塞纳丽舍(南门),嵩山路126,118.738,31.9994,大门,11,0025,50,4.545454545
B2094655D764A5F54392,宝象花园,,118.759,32.1059,住宅区,54,0025,178,3.296296296
B2094655D764A5F54393,汽轮七村(西门),,118.793,32.1013,住宅区,11,0025,43,3.909090909
B2094655D764A5F54492,南京化工厂太平小区(南门),,118.817,32.1336,住宅区,5,0025,10,2
B2094655D764A5F5449A,十字街70号小区(西门),十字街70号,118.809,32.0968,大门,5,0025,111,22.2
B2094655D764A5F5449F,南京海辰药业有限公司(南京银行新港支行西南),恒发路1,118.876,32.136,公司,11,0025,39,3.545454545
B2094655D764A5F84492,仁恒翠竹园(北二门),,118.794,31.991,大门,42,0025,106,2.523809523
B2094655D764A5F8449B,中国工商银行南京孝陵卫支行,玄武区孝陵卫街101号,118.859,32.0352,银行,3,0025,3,1
B2094655D764A5F84593,北苑阁新村(北门),文靖路60,118.842,31.9596,大门,5,0025,13,2.6
B2094655D764A5F8459A,丽景华庭(北门),永乐路13,118.805,31.9952,大门,5,0025,13,2.6
B2094655D764A5F8489C,长阳花园(北门),湘江路,118.731,32.0495,大门,13,0025,29,2.23076923
B2094655D764A5F8489E,馨瑰园(东门),,118.733,32.0476,住宅区,3,0025,19,6.333333333
B2094655D764A5F8499E,枫亚苑,鼓楼清凉门大街113号,118.744,32.0444,住宅区,10,0025,22,2.2
B2094655D764A5F8499F,枫亚苑(南门),,118.745,32.0436,住宅区,3,0025,3,1
B2094655D764A5F94099,牡丹里(南门),,118.745,32.0392,住宅区,11,0025,23,2.09090909
B2094655D764A5F94492,紫园小区(南门),孝陵卫街200号171-1幢,118.858,32.0314,大门,3,0025,3,1
B2094655D764A5F94893,五百新寓(北门),幕府东路84,118.788,32.1135,住宅区,3,0025,4,1.333333333
B2094655D764A5F9489B,金陵小区20号大院,宝塔桥东街20,118.756,32.1096,住宅区,7,0025,19,2.714285714
B2094655D764A5F9489C,宁欣苑小区,合班村32号,118.812,32.1109,住宅区,9,0025,30,3.333333333
B2094655D764A5FA4098,新安商务大厦,,118.803,32.042,楼宇大门,12,0025,37,3.083333333
B2094655D764A5FA4199,南京中国绿化博览园(南门),,118.711,32.0174,景点大门,38,0025,39,1.026315789
B2094655D764A5FA4693,江苏省新闻出版学校(东门),养回红村152,118.793,31.9937,校园生活,7,0025,9,1.285714285
B2094655D764A5FA4699,行政院(北门),东箭道19号,118.799,32.0453,公园户外,30,0025,39,1.3
B2094655D764A5FA479B,风光里小区(东门),大明路238,118.807,31.9975,大门,19,0025,50,2.631578947
B2094655D764A5FA489B,芙阁新村(东门),东新北路99,118.851,31.9588,住宅区,15,0025,66,4.4
B2094655D764A5FB409A,进取村(迈尧路),进取村154,118.841,32.1209,住宅区,12,0025,13,1.083333333
B2094655D764A5FB429B,"必胜宅急送 新城市店",鼓楼区草场门大街99号龙江新城市广场1楼(近江东北路),118.741,32.0558,西餐厅,39,0025,49,1.256410256
B2094655D764A5FB4593,总统府(南门),长江路292,118.798,32.0427,景点大门,313,0025,353,1.127795527
B2094655D764A5FB4693,宁泉北苑(东门),天印大道794,118.859,31.9566,住宅区,12,0025,12,1
B2094655D764A5FB479A,宁泉南苑(东门),天印大道810,118.859,31.9556,住宅区,6,0025,73,12.166666666
B2094655D764A5FB479B,东城家园(南门),上元大街863,118.857,31.958,楼宇大门,3,0025,5,1.666666666
B2094655D764A5FB489B,康润园(南门),小行路30,118.756,31.9895,住宅区,15,0025,31,2.066666666
B2094655D764A5FC4999,太子山公园(园东路),南京市六合区园东路280号,118.757,32.2198,公园,131,0025,298,2.27480916
B2094655D764A5FD419B,联珠村小区(南门),,118.818,32.131,住宅区,6,0025,14,2.333333333
B2094655D764A5FD4399,聚福园(北门),,118.736,32.052,大门,3,0025,3,1
B2094655D764A5FD489A,鸿意星城(西门),,118.862,32.0175,大门,12,0025,130,10.833333333
B2094655D764A5FE429A,锦绣华庭,,118.877,31.3311,住宅区,11,0025,40,3.636363636
B2094655D764A5FE429B,怡城花苑,北岭路88号,118.869,31.3319,住宅区,66,0025,255,3.863636363
B2094655D764A5FE439E,观音阁公园(北门),,118.817,32.1457,景点大门,7,0025,9,1.285714285
B2094655D764A5FE4498,中海·塞纳丽舍(东门),嵩山路126,118.74,31.9999,大门,5,0025,5,1
B2094655D764A5FF419C,汇景家园汇幸苑(北门),,118.811,31.9831,住宅区,5,0025,5,1
B2094655D764A5FF429F,南京川页机械有限公司,,119.048,31.6894,公司,3,0025,3,1
B2094655D764A5FF4392,四平苑(西门),四平路78,118.757,32.0958,大门,5,0025,6,1.2
B2094655D764A5FF4399,南京港第四港务公司(新港大道),,118.863,32.1617,公司,7,0025,10,1.428571428
B2094655D764A6F5459C,江苏省高淳高级中学(镇兴路),镇兴路185,118.884,31.3283,中学,172,0025,330,1.918604651
B2094655D764A6F5459D,淳辉高级中学,,118.897,31.3287,中学,31,0025,65,2.096774193
B2094655D764A6F54792,吉祥铜业小区(北门),联珠村188,118.811,32.1269,住宅区,3,0025,6,2
B2094655D764A6F54799,和燕花苑(南门),迈皋桥街256号,118.806,32.1046,住宅区,17,0025,32,1.882352941
B2094655D764A6F5479D,紫霞公寓(西门),东井亭100,118.8,32.1003,住宅区,24,0025,62,2.583333333
B2094655D764A6F5479E,东井村五十号小区(南门),东井村50号,118.806,32.1025,住宅区,5,0025,8,1.6
B2094655D764A6F54898,辰龙绿苑东区,,118.733,32.0458,住宅区,5,0025,8,1.6
B2094655D764A6F5489B,二桥公园(南门),,118.845,32.1501,景点大门,24,0025,28,1.166666666
B2094655D764A6F5489C,辰龙广场(北门),,118.738,32.0462,大门,36,0025,98,2.722222222
B2094655D764A6F5499B,中保绿苑,漓江路48号,118.738,32.0559,住宅区,41,0025,359,8.75609756
B2094655D764A6F84093,南京高精齿轮集团有限公司(尤家凹路),,118.748,31.9772,公司,13,0025,23,1.769230769
B2094655D764A6F8409A,溧水县群力中学,,119.011,31.74,中学,31,0025,38,1.225806451
B2094655D764A6F8419E,印湖山庄(印湖路),江宁区印湖路39号,118.874,31.9156,生活娱乐,15,0025,51,3.4
B2094655D764A6F8429A,朗诗·国际街区,,118.724,31.9911,楼宇大门,13,0025,20,1.538461538
B2094655D764A6F8429B,嘉业阳光城云景苑,,118.73,31.9944,楼宇大门,6,0025,8,1.333333333
B2094655D764A6F84792,苏果超市(苏源大道店),苏源大道8号会所1层商铺,118.808,31.9231,超级市场,6,0025,6,1
B2094655D764A6F8489B,商城小区,浦口区顶山街道临泉村,118.685,32.107,住宅区,46,0025,79,1.717391304
B2094655D764A6F84993,时光澔韵(北门),,118.753,31.9879,住宅区,17,0025,26,1.529411764
B2094655D764A6F94093,南京新地中心,,118.727,31.9975,楼宇,710,0025,1618,2.278873239
B2094655D764A6F9419D,明基医院(东门),建邺区河西大街71号(地铁中胜站),118.731,31.9866,知名企业,15,0025,20,1.333333333
B2094655D764A6F9419E,双和园(南门),,118.723,31.9816,大门,5,0025,5,1
B2094655D764A6F94298,青云巷29号院,青云巷29,118.851,31.9578,住宅区,2,0025,2,1
B2094655D764A6F94398,瑶池巷小区,瑶池巷8,118.846,31.9548,住宅区,1,0025,4,4
B2094655D764A6F9439F,尧林仙居社区卫生服务站,尧佳路33,118.885,32.1213,医院,5,0025,94,18.8
B2094655D764A6F9449A,万达华府东苑(西门),嵩山路129,118.738,31.9977,大门,5,0025,5,1
B2094655D764A6F94592,南京禄口国际机场贵宾服务有限公司,,118.87,31.7344,公司,85,0025,99,1.164705882
B2094655D764A6F9459A,冶山铁矿中学,,118.965,32.5189,中学,8,0025,9,1.125
B2094655D764A6F94698,南京龙潭码头,,119.041,32.1864,港口码头,58,0025,69,1.189655172
B2094655D764A6F9469C,桠建饭店,桠溪镇永宁西街66号,119.16,31.3679,江苏菜,4,0025,6,1.5
B2094655D764A6F9489F,全味鸭血粉丝汤小炒快餐盖浇饭,中央门外黄家圩131-28号,118.798,32.0955,特色／地方风味餐厅,2,0025,2,1
B2094655D764A6FA4492,苏果配送中心(海陵会议中心东北),奔马路2,118.899,32.075,生活娱乐,23,0025,47,2.04347826
B2094655D764A6FA469E,南京市公安局水上分局驻市长江河道管理处警务办公室,大马路91,118.738,32.094,生活娱乐,2,0025,2,1
B2094655D764A6FA479A,水关桥油运小区(北门),,118.759,32.0985,住宅区,6,0025,22,3.666666666
B2094655D764A6FB429E,东元山庄,小卫街102号,118.849,32.0363,住宅区,17,0025,72,4.235294117
B2094655D764A6FB439C,江苏省工人汤山疗养院(汤泉东路),江宁区汤山镇汤泉东路229号(近宁沪高速汤山收费站),119.068,32.0514,度假疗养场所,59,0025,69,1.169491525
B2094655D764A6FB439D,巴厘·原墅(原野阁土菜馆东),,119.014,32.0483,住宅区,28,0025,48,1.714285714
B2094655D764A6FB439F,紫金东苑,五棵松46-1号,118.883,32.0471,住宅区,6,0025,11,1.833333333
B2094655D764A6FB4599,金川新寓(西门),水关桥121-122号,118.757,32.1016,住宅区,2,0025,2,1
B2094655D764A6FB459C,盛世花园(北门),幕府东路96,118.792,32.1139,住宅区,12,0025,34,2.833333333
B2094655D764A6FB4698,苏宁馨瑰园(西门),,118.732,32.0476,住宅区,5,0025,7,1.4
B2094655D764A6FB479D,恒生·名仕嘉园(江东北路),江东中路1,118.74,32.0383,住宅区,26,0025,79,3.038461538
B2094655D764A6FB489A,海棠里社区(南门),,118.743,32.0394,住宅区,5,0025,6,1.2
B2094655D764A6FB489B,裕华名居(北门),,118.74,32.0406,住宅区,7,0025,9,1.285714285
B2094655D764A6FB4993,华能城市花园(北门),文德里66,118.798,32.0502,大门,3,0025,3,1
B2094655D764A6FB499F,乱世佳人酒吧1912店,长江后街8-1,118.797,32.0459,酒吧,1522,0025,2274,1.494086727
B2094655D764A6FC409B,南京理工大学人文与社会科学学院,江苏省南京玄武区孝陵卫200号南京理工大学,118.86,32.0293,高等院校,10,0025,11,1.1
B2094655D764A6FC4199,南京理工大学经济管理学院,,118.86,32.0292,高等院校,52,0025,101,1.942307692
B2094655D764A6FC4299,"名典咖啡语茶 江宁店",江宁区天元东路391号(近莱茵达路),118.859,31.938,其他,72,0025,106,1.472222222
B2094655D764A6FC429E,名典咖啡语茶(溧水大东门店),近郊溧水县大东门商业步行街C1区1-2号,119.031,31.6527,西餐厅,23,0025,25,1.086956521
B2094655D764A6FD419A,江苏海事职业技术学院,江宁区格致路309号(近南京交院地铁站),118.903,31.9194,高校中心点,2598,0025,11735,4.516936104
B2094655D764A6FD479E,苏宁电器(江宁店),江宁区金箔路,118.858,31.951,家电电子卖场,9,0025,8,0.888888888
B2094655D764A6FE4098,南京医科大学,南京市汉中路140号,118.888,31.9396,高校中心点,2857,0025,11660,4.08120406
B2094655D764A6FE409C,7天连锁酒店(大厂店),沿江工业开发区长冲步行街59号嘉泰大厦,118.764,32.2308,经济型连锁酒店,7,0025,8,1.142857142
B2094655D764A6FE4299,"迪欧咖啡 板门口店",近郊六合区板门口90号(近长江路),118.842,32.3421,其他,266,0025,468,1.759398496
B2094655D764A6FE449A,金陵科技学院晓庄校区,栖霞区水吉路,118.815,32.1264,大门,29,0025,46,1.586206896
B2094655D764A6FE479A,朗诗·国际街区中园(北门),白龙江东街87,118.724,31.9904,大门,5,0025,6,1.2
B2094655D764A6FE479F,薪加德,,118.863,32.1093,住宅区,8,0025,13,1.625
B2094655D764A6FE4898,(清修服务区)餐厅,,118.596,31.8171,中餐厅,27,0025,29,1.074074074
B2094655D764A6FE489B,(江宁服务区)餐厅,江宁服务区,118.921,31.9178,快餐厅,3,0025,3,1
B2094655D764A6FE4998,南京老山森林汽车公园(南京市浦口区汤泉小学东南),老山国家森林公园狮子岭景区,118.535,32.0818,公园,12,0025,13,1.083333333
B2094655D764A6FF409A,江宁服务区,,118.921,31.9177,公园户外,63,0025,91,1.444444444
B2094655D764A6FF409C,茗醉喋语,迈皋桥创业街A-042,118.842,32.1215,快餐厅,9,0025,127,14.111111111
B2094655D764A6FF439E,泛太克,,119.016,32.1609,公司,5,0025,9,1.8
B2094655D764A6FF4493,中国移动营业厅,,118.463,31.8582,电讯营业厅,13,0025,16,1.23076923
B2094655D764A6FF469A,横山风景区,,118.805,31.6484,公园户外,145,0025,204,1.406896551
B2094655D764A6FF469D,巴厘·原墅,,118.808,32.0458,住宅区,9,0025,10,1.111111111
B2094655D764A6FF469E,江宁区丹阳学校,,118.721,31.6408,中学,80,0025,114,1.425
B2094655D764A6FF469F,高淳县湖滨高级中学,,118.942,31.3673,中学,92,0025,214,2.326086956
B2094655D764A6FF4899,苏果社区店(锦绣花园南),江苏省南京市江宁区麒东路138号,118.932,32.0549,超级市场,13,0025,13,1
B2094655D764A6FF499A,南京国际博览中心(东门),,118.715,31.9887,展览馆,12,0025,12,1
B2094655D764A6FF499B,青云巷3号院,青云巷3,118.851,31.9566,住宅区,1,0025,1,1
B2094655D764A6FF499C,南京丽豪大酒店,近郊六合区雄州南路1号(近雄州东路),118.836,32.3334,三星级宾馆,20,0025,26,1.3
B2094655D764A6FF499F,南京新城科技广场,,118.738,31.9921,产业园区,6,0025,8,1.333333333
B2094655D764A7F4459D,朗诗·国际街区中园,白龙江东街87,118.723,31.9899,住宅区,44,0025,104,2.363636363
B2094655D764A7F5429F,南京城东医院,马群街31号,118.894,32.0486,医院,20,0025,23,1.15
B2094655D764A7F54392,南京理工大学医院,江苏省南京玄武区孝陵卫200号南京理工大学,118.852,32.03,医院,84,0025,115,1.369047619
B2094655D764A7F5449A,南京大学医学院附属口腔医院,红山路,118.81,32.1013,医院,4,0025,4,1
B2094655D764A7F5489C,中国医科大学中药学院,神农路1号,118.83,32.1283,高等院校,47,0025,251,5.340425531
B2094655D764A7F5489D,南京信息工程大学图书馆,近郊浦口区盘城新街114号南京信息工程大学,118.717,32.205,图书馆,1928,0025,5293,2.74533195
B2094655D764A7F5489F,凤翔山庄,铁心桥凤翔山庄,118.757,31.9633,住宅区,60,0025,314,5.233333333
B2094655D764A7F5499C,河西中央公园(南门)(河西大街),建邺区河西大街(近奥体中心),118.725,31.9946,大门,9,0025,9,1
B2094655D764A7F8419D,广州本田雨田店,卡子门大街86号,118.801,31.9826,汽车维修,20,0025,24,1.2
B2094655D764A7F8429A,广汽丰田协众东麒路店,上坊东麒路,118.877,31.9788,汽车维修,37,0025,42,1.135135135
B2094655D764A7F8449A,汉江韩国料理,白下区中山东路319号维景国际大酒店地下1层,119.034,31.6553,韩国料理,9,0025,9,1
B2094655D764A7F84598,美美餐厅,栖霞区和燕路441号,118.821,32.1282,江苏菜,8,0025,8,1
B2094655D764A7F94793,百货大厦,通贤街,118.868,31.3214,商场,13,0025,18,1.384615384
B2094655D764A7F9489A,三山教堂,,118.638,31.9055,教堂,8,0025,9,1.125
B2094655D764A7FA419B,中国移动高淳县桠溪镇营业厅,桠溪镇永宁西街087,119.16,31.3675,电讯营业厅,11,0025,11,1
B2094655D764A7FA4293,南京福斯特牧业科技有限公司,水阳江路5号,118.909,31.3347,公司,6,0025,10,1.666666666
B2094655D764A7FA449A,钟山风景区,南京市玄武区中山门外石象路7号,118.854,32.0537,公园户外,16018,0025,26525,1.655949556
B2094655D764A7FA449E,天润城1-4街区,"浦口区沿江街道天华北路2号,6号",118.734,32.1461,住宅区,357,0025,1024,2.868347338
B2094655D764A7FA469B,(南京三桥服务区)南京市公安局公路巡逻警察支队长江三桥大队,,118.608,31.9862,公园户外,12,0025,27,2.25
B2094655D764A7FA479B,中国电信南京电信局栖霞区局,尧佳路2,118.874,32.1138,公司,3,0025,15,5
B2094655D764A7FA489B,奥斯博恩庄园,宁溧路188号,118.857,31.7952,住宅区,582,0025,1028,1.766323024
B2094655D764A7FA499B,新华书店浦口文德路店,文德路22,118.627,32.0569,书店,2,0025,2,1
B2094655D764A7FB4192,江苏社科进修大学(镇方西路),,118.835,31.8415,高等院校,3,0025,9,3
B2094655D764A7FB449F,鹏城国际,六合区雄州街道雄州南路168号,118.829,32.3283,住宅区,71,0025,236,3.323943661
B2094655D764A7FB4698,薛城中学,,118.875,31.3627,中学,12,0025,14,1.166666666
B2094655D764A7FB4893,中国移动龙潭花园街营业厅,龙潭花园街粮油站旁,119.082,32.2035,电讯营业厅,9,0025,9,1
B2094655D764A7FB489D,金淳花园,固城湖南路25号,118.879,31.3212,住宅区,5,0025,12,2.4
B2094655D764A7FF4792,江苏南京新港高尔夫俱乐部,新港开发区恒飞路3号,118.855,32.1519,高尔夫相关,73,0025,106,1.452054794
B2094655D764A7FF479D,江苏南京金沙高尔夫球练习场,鼓楼区河西大街2号(泰山路口),118.733,31.9902,高尔夫相关,6,0025,6,1
B2094655D764AAF4429D,高淳县漆桥镇天和酒店,漆桥镇双牌石大街2号,118.994,31.3874,旅馆招待所,10,0025,12,1.2
B2094655D764AAF44899,南京市江宁高级中学南门,,118.869,31.9388,中学,26,0025,35,1.346153846
B2094655D764AAF5459A,粤鸿和酒楼(天元府店),江宁区莱茵达路28号(近新亭路),118.855,31.9432,广东菜,237,0025,324,1.367088607
B2094655D764AAF54693,金信花园(北一门),清凉门大街68号,118.747,32.049,大门,7,0025,23,3.285714285
B2094655D764AAF5479A,太阳岛高尔夫俱乐部,南京溧水县天生桥风景区胭脂河西  ,118.988,31.6425,高尔夫相关,56,0025,72,1.285714285
B2094655D764AAF84093,水关桥小区,幕府西路132,118.758,32.1005,住宅区,35,0025,351,10.028571428
B2094655D764AAF84193,苏宁银河天启花园(湛江路),,118.744,32.0486,住宅区,16,0025,37,2.3125
B2094655D764AAF84292,东虹花苑,东山,118.774,31.8666,住宅区,207,0025,969,4.68115942
B2094655D764AAF8429A,金叶花园,龙飞路杨村,118.652,31.9247,住宅区,66,0025,240,3.636363636
B2094655D764AAF8439C,西大影壁,珠江路573号,118.802,32.0481,住宅区,12,0025,41,3.416666666
B2094655D764AAF8449A,滨江花园,南京市下关区晓街,118.755,32.0971,住宅区,104,0025,920,8.846153846
B2094655D764AAF84598,蔡家花园,,118.825,31.8587,住宅区,4,0025,5,1.25
B2094655D764AAF84599,陈家花园,,118.773,31.8913,住宅区,9,0025,9,1
B2094655D764AAF8459A,花园农场,,119.086,32.2153,住宅区,15,0025,16,1.066666666
B2094655D764AAF8459B,李家花园,,118.559,31.8214,住宅区,3,0025,3,1
B2094655D764AAF84693,长征医院南京分院,下关区建宁路200号,118.749,32.0919,医院,173,0025,593,3.427745664
B2094655D764AAF9419C,大昇馆本地特色,江宁区竹山路88号金钥匙大厦(近新亭路),118.846,31.9328,韩国料理,8,0025,10,1.25
B2094655D764AAF94392,金陵世纪花园,南京鼓楼区江东北路99号,118.736,32.0399,住宅区,148,0025,813,5.493243243
B2094655D764AAF94798,南京银泉庄园休闲中心,近郊汤泉镇火炬东路8号,118.514,32.0887,公园户外,34,0025,42,1.235294117
B2094655D764AAF9479C,南京中国近代史遗址博物馆,白下区长江路292号,118.797,32.046,博物馆,5,0025,6,1.2
B2094655D764AAF94893,六合服务区,,118.737,32.4772,公园户外,203,0025,226,1.113300492
B2094655D764AAF9499A,八卦洲服务区,南京市八卦洲,118.832,32.1736,公园户外,106,0025,120,1.132075471
B2094655D764AAFB4099,胡家花园,江宁区湖滨路15号世界村E-12幢(大富豪对面),118.812,31.9423,江苏菜,175,0025,187,1.068571428
B2094655D764AAFC409B,南京锦湖轮胎有限公司,,118.822,32.1199,公司,11,0025,25,2.272727272
B2094655D764AAFC429F,滨江花园西园,,118.753,32.0975,住宅区,24,0025,388,16.166666666
B2094655D764AAFC449F,伯乐园(北门),,118.819,32.1286,景点大门,12,0025,27,2.25
B2094655D764AAFC4598,阳光里物业小区(西门),,118.803,31.9981,住宅区,19,0025,111,5.842105263
B2094655D764AAFC4693,银城·西堤国际第伍区(东门),,118.734,32.0005,大门,7,0025,7,1
B2094655D764AAFD429B,苏宁电器(商贸广场店),南京新街口正洪广场商贸世纪广场,118.795,31.9945,家电电子卖场,18,0025,18,1
B2094655D764AAFD4793,中国移动南京和燕路迈皋桥指定专营店,迈皋桥和燕路294号,118.808,32.1029,电讯营业厅,4,0025,4,1
B2094655D764AAFD499F,金陵石化化工一厂子弟小学,栖霞区太新路92号,118.838,32.1418,小学,5,0025,5,1
B2094655D764AAFE4599,家乐福超市(河西中央公园店),建邺区江东中路341号,118.724,31.9971,超级市场,69,0025,108,1.565217391
B2094655D764AAFE4693,进取村,进取村152,118.841,32.1228,住宅区,9,0025,97,10.777777777
B2094655D764AAFE479D,南京中医药大学,近郊仙林大道138号(近学原路),118.947,32.102,高校中心点,3683,0025,18672,5.06978007
B2094655D764AAFE499B,龙翔·鸣翠苑,秦淮区永乐路,118.799,31.9959,住宅区,51,0025,281,5.509803921
B2094655D764AAFE499E,西堤国际三区,,118.737,32.0021,住宅区,53,0025,188,3.547169811
B2094655D764AAFF4092,银城·西堤国际F区,,118.735,32.0003,住宅区,14,0025,37,2.642857142
B2094655D764AAFF409A,"俺家小院 徐庄店，中山南路店，鼓楼店",玄武大道徐庄软件基地699-1号近宁镇公路近徐庄软件基地,118.885,32.0953,江苏菜,37,0025,37,1
B2094655D764AAFF419A,银龙花园,石杨路55,118.853,32.0045,住宅区,825,0025,2646,3.207272727
B2094655D764AAFF4698,万达紫金明珠,白下区星海路8号,118.86,32.0154,住宅区,512,0025,2008,3.921875
B2094655D764AAFF469C,花红园,珠江路四牌楼附近,118.8,32.0499,住宅区,13,0025,54,4.153846153
B2094655D764AAFF489C,辰龙绿苑,锦江路77号,118.733,32.0451,住宅区,64,0025,183,2.859375
B2094655D764ABF44098,南京广播电视大学下关校区餐厅,建宁路355号,118.739,32.0912,快餐厅,6,0025,6,1
B2094655D764ABF4409B,南京海事码头,,118.735,32.0921,港口码头,37,0025,41,1.108108108
B2094655D764ABF4429E,福林酒楼,近郊雨花台区郁金香路18-8号,118.792,31.9867,江苏菜,2,0025,2,1
B2094655D764ABF4449F,太瓷桥(南门),太新路3,118.823,32.1376,住宅区,3,0025,3,1
B2094655D764ABF4459A,南京晓庄学院晓庄校区,和燕路462号,118.822,32.1279,高等院校,92,0025,275,2.989130434
B2094655D764ABF4479E,于家巷26号小区,于家巷26号1-10弄,118.751,32.0914,住宅区,2,0025,9,4.5
B2094655D764ABF54098,南京明文化村(阳山碑材)景区,江宁区汤山街道古泉村,119.001,32.0665,国家级景点,139,0025,161,1.158273381
B2094655D764ABF54298,南京江心洲民俗村,南京市建邺区江心洲街道东寿78号,118.699,32.024,公园户外,5,0025,6,1.2
B2094655D764ABF54499,百仕园(西门),,118.805,32.0525,大门,1,0025,1,1
B2094655D764ABF5459C,南京国际博览中心(北门),,118.718,31.9944,展览馆,39,0025,41,1.051282051
B2094655D764ABF5479B,南砖新村,,118.812,32.1083,住宅区,12,0025,28,2.333333333
B2094655D764ABF5499A,汇安苑(南门),,118.813,31.9825,住宅区,1,0025,1,1
B2094655D764ABF8409B,南苑小区(明珠大厦西北),,119.029,31.643,住宅区,6,0025,9,1.5
B2094655D764ABF8429D,南塑新村,迈皋桥好友多旁,118.814,32.1077,住宅区,30,0025,150,5
B2094655D764ABF8439E,长营村(华电路),,118.813,32.105,住宅区,26,0025,69,2.653846153
B2094655D764ABF84592,南京高精齿轮集团公司家属院,,118.746,31.9774,住宅区,7,0025,41,5.857142857
